{
  "restaurants": [
    {
      "name": "Blazing Grill",
      "place_id": "ChIJ5Qrgs_8VkFQRm_T3JqmkpNY",
      "type": "Middle Eastern Restaurant",
      "rating": 5,
      "user_ratings_total": 230,
      "location": {
        "latitude": 47.675154299999996,
        "longitude": -122.3765615
      },
      "address": "6315 15th Ave NW, Seattle",
      "maps_url": "https://maps.google.com/?cid=15466668066707338395&g_mp=Cilnb29nbGUubWFwcy5wbGFjZXMudjEuUGxhY2VzLlNlYXJjaE5lYXJieRACGAQgAA"
    },
    {
      "name": "Nautical Bowls",
      "place_id": "ChIJG8rs6iIVkFQRj6GMQjjPvhM",
      "type": "Açaí shop",
      "rating": 5,
      "user_ratings_total": 230,
      "location": {
        "latitude": 47.6623495,
        "longitude": -122.3752464
      },
      "address": "Ballard Modern Dentistry, 1416 NW 46th St STE 104, Seattle",
      "maps_url": "https://maps.google.com/?cid=1422802372837286287&g_mp=Cilnb29nbGUubWFwcy5wbGFjZXMudjEuUGxhY2VzLlNlYXJjaE5lYXJieRACGAQgAA"
    },
    {
      "name": "Zax Eat 'N Three",
      "place_id": "ChIJiQnUBQAVkFQRuBvxHFdSfpU",
      "type": "American Restaurant",
      "rating": 5,
      "user_ratings_total": 125,
      "location": {
        "latitude": 47.685997199999996,
        "longitude": -122.3447785
      },
      "address": "7815 Aurora Ave N, Seattle",
      "maps_url": "https://maps.google.com/?cid=10772137892818000824&g_mp=Cilnb29nbGUubWFwcy5wbGFjZXMudjEuUGxhY2VzLlNlYXJjaE5lYXJieRACGAQgAA"
    },
    {
      "name": "Shark Bite Ceviches",
      "place_id": "ChIJh8NwEgcVkFQRnvp9D5XU06o",
      "type": "Restaurant",
      "rating": 5,
      "user_ratings_total": 118,
      "location": {
        "latitude": 47.675823,
        "longitude": -122.3603658
      },
      "address": "6256 3rd Ave NW, Seattle",
      "maps_url": "https://maps.google.com/?cid=12309415943208827550&g_mp=Cilnb29nbGUubWFwcy5wbGFjZXMudjEuUGxhY2VzLlNlYXJjaE5lYXJieRACGAQgAA"
    },
    {
      "name": "Top Dead Center, Seattle",
      "place_id": "ChIJo1rESj4VkFQRjoLMK_EsdiQ",
      "type": "Restaurant",
      "rating": 5,
      "user_ratings_total": 87,
      "location": {
        "latitude": 47.6849166,
        "longitude": -122.3448046
      },
      "address": "7701 Aurora Ave N, Seattle",
      "maps_url": "https://maps.google.com/?cid=2627336846950826638&g_mp=Cilnb29nbGUubWFwcy5wbGFjZXMudjEuUGxhY2VzLlNlYXJjaE5lYXJieRACGAQgAA"
    },
    {
      "name": "King of Taste",
      "place_id": "ChIJucBOGgAVkFQRYKy1AhoTUqU",
      "type": "Indian Restaurant",
      "rating": 5,
      "user_ratings_total": 84,
      "location": {
        "latitude": 47.659404699999996,
        "longitude": -122.4003326
      },
      "address": "3317 W Government Way, Seattle",
      "maps_url": "https://maps.google.com/?cid=11912604966783921248&g_mp=Cilnb29nbGUubWFwcy5wbGFjZXMudjEuUGxhY2VzLlNlYXJjaE5lYXJieRACGAQgAA"
    },
    {
      "name": "Pasta Van",
      "place_id": "ChIJQaaSBi8VkFQR8Ch_OhQ30ms",
      "type": "American Restaurant",
      "rating": 5,
      "user_ratings_total": 30,
      "location": {
        "latitude": 47.6779541,
        "longitude": -122.37492970000001
      },
      "address": "6700 Alonzo Ave NW, Seattle",
      "maps_url": "https://maps.google.com/?cid=7769332867187812592&g_mp=Cilnb29nbGUubWFwcy5wbGFjZXMudjEuUGxhY2VzLlNlYXJjaE5lYXJieRACGAQgAA"
    },
    {
      "name": "Kochendorfer's",
      "place_id": "ChIJYSLFLa4VkFQRL7LR9H6jYQU",
      "type": "Restaurant",
      "rating": 5,
      "user_ratings_total": 26,
      "location": {
        "latitude": 47.6644812,
        "longitude": -122.3791548
      },
      "address": "4910 Leary Ave NW, Seattle",
      "maps_url": "https://maps.google.com/?cid=387770808599163439&g_mp=Cilnb29nbGUubWFwcy5wbGFjZXMudjEuUGxhY2VzLlNlYXJjaE5lYXJieRACGAQgAA"
    },
    {
      "name": "Waca Maya",
      "place_id": "ChIJp6Kjl-UXkFQRRmj5uQrI7n8",
      "type": "Restaurant",
      "rating": 5,
      "user_ratings_total": 24,
      "location": {
        "latitude": 47.7044186,
        "longitude": -122.35594619999999
      },
      "address": "10410 Holman Rd N, Seattle",
      "maps_url": "https://maps.google.com/?cid=9218525435669342278&g_mp=Cilnb29nbGUubWFwcy5wbGFjZXMudjEuUGxhY2VzLlNlYXJjaE5lYXJieRACGAQgAA"
    },
    {
      "name": "Villaggio indian cuisine",
      "place_id": "ChIJV3pdEQAVkFQRA6wryI2ziJY",
      "type": "Indian Restaurant",
      "rating": 5,
      "user_ratings_total": 6,
      "location": {
        "latitude": 47.6397927,
        "longitude": -122.39881899999997
      },
      "address": "3208 W McGraw St, Seattle",
      "maps_url": "https://maps.google.com/?cid=10847117124051905539&g_mp=Cilnb29nbGUubWFwcy5wbGFjZXMudjEuUGxhY2VzLlNlYXJjaE5lYXJieRACGAQgAA"
    },
    {
      "name": "Ba + Mẹ",
      "place_id": "ChIJ0yuMA88VkFQR_pPwsj3-6sk",
      "type": "Restaurant",
      "rating": 5,
      "user_ratings_total": 5,
      "location": {
        "latitude": 47.67299080000001,
        "longitude": -122.31751539999999
      },
      "address": "6105a Roosevelt Way NE, Seattle",
      "maps_url": "https://maps.google.com/?cid=14549721087122379774&g_mp=Cilnb29nbGUubWFwcy5wbGFjZXMudjEuUGxhY2VzLlNlYXJjaE5lYXJieRACGAQgAA"
    },
    {
      "name": "Capital Burgue Fremont",
      "place_id": "ChIJTTjjH4gVkFQRAX0xDH-fOnE",
      "type": "Fast Food Restaurant",
      "rating": 5,
      "user_ratings_total": 4,
      "location": {
        "latitude": 47.6622711,
        "longitude": -122.3504382
      },
      "address": "4605 Fremont Ave N, Seattle",
      "maps_url": "https://maps.google.com/?cid=8159009042949307649&g_mp=Cilnb29nbGUubWFwcy5wbGFjZXMudjEuUGxhY2VzLlNlYXJjaE5lYXJieRACGAQgAA"
    },
    {
      "name": "Eva’s Wild",
      "place_id": "ChIJt21AdwAVkFQRj0X3XUtWD9Q",
      "type": "Restaurant",
      "rating": 5,
      "user_ratings_total": 3,
      "location": {
        "latitude": 47.6499963,
        "longitude": -122.342079
      },
      "address": "3530 Stone Way N, Seattle",
      "maps_url": "https://maps.google.com/?cid=15280526942390404495&g_mp=Cilnb29nbGUubWFwcy5wbGFjZXMudjEuUGxhY2VzLlNlYXJjaE5lYXJieRACGAQgAA"
    },
    {
      "name": "The Biryani Wars",
      "place_id": "ChIJPcmXiiEVkFQR2FZw9XqWxZQ",
      "type": "Indian Restaurant",
      "rating": 5,
      "user_ratings_total": 3,
      "location": {
        "latitude": 47.6695925,
        "longitude": -122.3170785
      },
      "address": "5600 Roosevelt Way NE #111, Seattle",
      "maps_url": "https://maps.google.com/?cid=10720139942873290456&g_mp=Cilnb29nbGUubWFwcy5wbGFjZXMudjEuUGxhY2VzLlNlYXJjaE5lYXJieRACGAQgAA"
    },
    {
      "name": "Chayotee",
      "place_id": "ChIJnTj2b-4VkFQRlqSGAI2p7lY",
      "type": "Restaurant",
      "rating": 5,
      "user_ratings_total": 2,
      "location": {
        "latitude": 47.669614499999994,
        "longitude": -122.3757735
      },
      "address": "5602 15th Ave NW, Seattle",
      "maps_url": "https://maps.google.com/?cid=6264130554783245462&g_mp=Cilnb29nbGUubWFwcy5wbGFjZXMudjEuUGxhY2VzLlNlYXJjaE5lYXJieRACGAQgAA"
    },
    {
      "name": "Loroco Fernaldia Pandurata",
      "place_id": "ChIJDUIqpWwVkFQROASTkpx2_Cc",
      "type": "Restaurant",
      "rating": 5,
      "user_ratings_total": 2,
      "location": {
        "latitude": 47.6706254,
        "longitude": -122.37668759999998
      },
      "address": "5715 15th Ave NW, Seattle",
      "maps_url": "https://maps.google.com/?cid=2881308276456358968&g_mp=Cilnb29nbGUubWFwcy5wbGFjZXMudjEuUGxhY2VzLlNlYXJjaE5lYXJieRACGAQgAA"
    },
    {
      "name": "Muxes",
      "place_id": "ChIJ_TYDYAAVkFQRmJC89gES8xw",
      "type": "Mexican Restaurant",
      "rating": 5,
      "user_ratings_total": 2,
      "location": {
        "latitude": 47.6757661,
        "longitude": -122.3252414
      },
      "address": "301 NE 65th St, Seattle",
      "maps_url": "https://maps.google.com/?cid=2086030852046491800&g_mp=Cilnb29nbGUubWFwcy5wbGFjZXMudjEuUGxhY2VzLlNlYXJjaE5lYXJieRACGAQgAA"
    },
    {
      "name": "Exit 5 Korean BBQ",
      "place_id": "ChIJ6TDOawAVkFQRfpEdR4FtG1I",
      "type": "Korean Restaurant",
      "rating": 5,
      "user_ratings_total": 1,
      "location": {
        "latitude": 47.6689259,
        "longitude": -122.387187
      },
      "address": "2304 NW Market St, Seattle",
      "maps_url": "https://maps.google.com/?cid=5916442937492607358&g_mp=Cilnb29nbGUubWFwcy5wbGFjZXMudjEuUGxhY2VzLlNlYXJjaE5lYXJieRACGAQgAA"
    },
    {
      "name": "Mini Bar Seattle",
      "place_id": "ChIJPwzjuY0VkFQR569FC_kLSXI",
      "type": "Restaurant",
      "rating": 4.9,
      "user_ratings_total": 417,
      "location": {
        "latitude": 47.6485151,
        "longitude": -122.34329149999999
      },
      "address": "1100 N Northlake Way, Seattle",
      "maps_url": "https://maps.google.com/?cid=8235126557887541223&g_mp=Cilnb29nbGUubWFwcy5wbGFjZXMudjEuUGxhY2VzLlNlYXJjaE5lYXJieRACGAQgAA"
    },
    {
      "name": "Magic Masala Indian Cuisine",
      "place_id": "ChIJ-U64AgAVkFQRweY3zwc0bTw",
      "type": "Restaurant",
      "rating": 4.9,
      "user_ratings_total": 390,
      "location": {
        "latitude": 47.6903854,
        "longitude": -122.3577715
      },
      "address": "101 N 85th St #102, Seattle",
      "maps_url": "https://maps.google.com/?cid=4354193622883100353&g_mp=Cilnb29nbGUubWFwcy5wbGFjZXMudjEuUGxhY2VzLlNlYXJjaE5lYXJieRACGAQgAA"
    },
    {
      "name": "Shawarma buzz",
      "place_id": "ChIJ-xlydpsVkFQRNQIzp0q_CoA",
      "type": "Middle Eastern Restaurant",
      "rating": 4.9,
      "user_ratings_total": 362,
      "location": {
        "latitude": 47.639305199999995,
        "longitude": -122.39797449999999
      },
      "address": "2236 32nd Ave W suite a, Seattle",
      "maps_url": "https://maps.google.com/?cid=9226397113975505461&g_mp=Cilnb29nbGUubWFwcy5wbGFjZXMudjEuUGxhY2VzLlNlYXJjaE5lYXJieRACGAQgAA"
    },
    {
      "name": "Nirvana",
      "place_id": "ChIJT7tsMrEVkFQRJgFxpSNBNJk",
      "type": "Mediterranean Restaurant",
      "rating": 4.9,
      "user_ratings_total": 292,
      "location": {
        "latitude": 47.6678508,
        "longitude": -122.3791376
      },
      "address": "5401 17th Ave NW, Seattle",
      "maps_url": "https://maps.google.com/?cid=11039520207947235622&g_mp=Cilnb29nbGUubWFwcy5wbGFjZXMudjEuUGxhY2VzLlNlYXJjaE5lYXJieRACGAQgAA"
    },
    {
      "name": "Hamsa Arabic Cafe & Bistro Seattle",
      "place_id": "ChIJG66mER8VkFQR4gSipF78Irw",
      "type": "Cafe",
      "rating": 4.9,
      "user_ratings_total": 161,
      "location": {
        "latitude": 47.6612276,
        "longitude": -122.33075260000001
      },
      "address": "2313 N 45th St, Seattle",
      "maps_url": "https://maps.google.com/?cid=13556675311757821154&g_mp=Cilnb29nbGUubWFwcy5wbGFjZXMudjEuUGxhY2VzLlNlYXJjaE5lYXJieRACGAQgAA"
    },
    {
      "name": "Three Sacks Full",
      "place_id": "ChIJjS6EGAxrkFQRphrCPj4cdo8",
      "type": "Restaurant",
      "rating": 4.9,
      "user_ratings_total": 115,
      "location": {
        "latitude": 47.675099499999995,
        "longitude": -122.31786960000001
      },
      "address": "918 NE 64th St Suite 2, Seattle",
      "maps_url": "https://maps.google.com/?cid=10337481048342010534&g_mp=Cilnb29nbGUubWFwcy5wbGFjZXMudjEuUGxhY2VzLlNlYXJjaE5lYXJieRACGAQgAA"
    },
    {
      "name": "Koshari",
      "place_id": "ChIJJ-cTMUhrkFQRX1N696MEdrQ",
      "type": "Vegetarian Restaurant",
      "rating": 4.9,
      "user_ratings_total": 93,
      "location": {
        "latitude": 47.6699327,
        "longitude": -122.38789139999999
      },
      "address": "5615 24th Ave NW #102, Seattle",
      "maps_url": "https://maps.google.com/?cid=13003586076357055327&g_mp=Cilnb29nbGUubWFwcy5wbGFjZXMudjEuUGxhY2VzLlNlYXJjaE5lYXJieRACGAQgAA"
    },
    {
      "name": "Human People Beer Cafe",
      "place_id": "ChIJGR9QSQAVkFQR0n-lQDvO0Og",
      "type": "Brewpub",
      "rating": 4.9,
      "user_ratings_total": 92,
      "location": {
        "latitude": 47.67299080000001,
        "longitude": -122.31751539999999
      },
      "address": "6105a Roosevelt Way NE, Seattle",
      "maps_url": "https://maps.google.com/?cid=16776135365838077906&g_mp=Cilnb29nbGUubWFwcy5wbGFjZXMudjEuUGxhY2VzLlNlYXJjaE5lYXJieRACGAQgAA"
    },
    {
      "name": "Arepa Fusion",
      "place_id": "ChIJhT8K7GUVkFQRtTaUaALefSU",
      "type": "Takeout Restaurant",
      "rating": 4.9,
      "user_ratings_total": 65,
      "location": {
        "latitude": 47.6695555,
        "longitude": -122.317251
      },
      "address": "5600 Roosevelt Way NE, Seattle",
      "maps_url": "https://maps.google.com/?cid=2701559453418010293&g_mp=Cilnb29nbGUubWFwcy5wbGFjZXMudjEuUGxhY2VzLlNlYXJjaE5lYXJieRACGAQgAA"
    },
    {
      "name": "RESPITE Wine Bar + Bottle Shop",
      "place_id": "ChIJrzeZaAAVkFQRwhU2N1xK0Ss",
      "type": "Wine Bar",
      "rating": 4.9,
      "user_ratings_total": 55,
      "location": {
        "latitude": 47.657159899999996,
        "longitude": -122.3420468
      },
      "address": "4106 Stone Way N Suite 101, Seattle",
      "maps_url": "https://maps.google.com/?cid=3157386573687166402&g_mp=Cilnb29nbGUubWFwcy5wbGFjZXMudjEuUGxhY2VzLlNlYXJjaE5lYXJieRACGAQgAA"
    },
    {
      "name": "Kahlo & Loyal",
      "place_id": "ChIJ57GLEQAVkFQRCMX8qgogHMc",
      "type": "Tapas Restaurant",
      "rating": 4.9,
      "user_ratings_total": 38,
      "location": {
        "latitude": 47.669629,
        "longitude": -122.37865509999999
      },
      "address": "5608 17th Ave NW, Seattle",
      "maps_url": "https://maps.google.com/?cid=14347377743086011656&g_mp=Cilnb29nbGUubWFwcy5wbGFjZXMudjEuUGxhY2VzLlNlYXJjaE5lYXJieRACGAQgAA"
    },
    {
      "name": "Rotana Bites",
      "place_id": "ChIJfYwvAigVkFQRICLQmq_m8ks",
      "type": "Hamburger Restaurant",
      "rating": 4.9,
      "user_ratings_total": 27,
      "location": {
        "latitude": 47.669610399999996,
        "longitude": -122.3172343
      },
      "address": "5600 Roosevelt Way NE, Seattle",
      "maps_url": "https://maps.google.com/?cid=5472690139099570720&g_mp=Cilnb29nbGUubWFwcy5wbGFjZXMudjEuUGxhY2VzLlNlYXJjaE5lYXJieRACGAQgAA"
    },
    {
      "name": "Pluto organic cafe",
      "place_id": "ChIJV5uTLAEVkFQR2WVzFBrjRPY",
      "type": "Breakfast Restaurant",
      "rating": 4.9,
      "user_ratings_total": 21,
      "location": {
        "latitude": 47.650224300000005,
        "longitude": -122.34960139999998
      },
      "address": "3418 Fremont Ave N, Seattle",
      "maps_url": "https://maps.google.com/?cid=17745558132898358745&g_mp=Cilnb29nbGUubWFwcy5wbGFjZXMudjEuUGxhY2VzLlNlYXJjaE5lYXJieRACGAQgAA"
    },
    {
      "name": "Taqueria El 5 De Mayo",
      "place_id": "ChIJV5y_BvsVkFQRvVT26iJl_0g",
      "type": "Mexican Restaurant",
      "rating": 4.9,
      "user_ratings_total": 17,
      "location": {
        "latitude": 47.6615397,
        "longitude": -122.33960409999999
      },
      "address": "1420 N 45th St, Seattle",
      "maps_url": "https://maps.google.com/?cid=5260034090437334205&g_mp=Cilnb29nbGUubWFwcy5wbGFjZXMudjEuUGxhY2VzLlNlYXJjaE5lYXJieRACGAQgAA"
    },
    {
      "name": "LZ's Tavern",
      "place_id": "ChIJ-Q1PUAAVkFQRgJw559lA53Q",
      "type": "Bar",
      "rating": 4.9,
      "user_ratings_total": 16,
      "location": {
        "latitude": 47.65893,
        "longitude": -122.34984879999999
      },
      "address": "4256 Fremont Ave N, Seattle",
      "maps_url": "https://maps.google.com/?cid=8423772932651195520&g_mp=Cilnb29nbGUubWFwcy5wbGFjZXMudjEuUGxhY2VzLlNlYXJjaE5lYXJieRACGAQgAA"
    },
    {
      "name": "I Love Teriyaki Ballard",
      "place_id": "ChIJy9f3ahoVkFQRWyZ7LfdJOyc",
      "type": "Restaurant",
      "rating": 4.9,
      "user_ratings_total": 14,
      "location": {
        "latitude": 47.6758112,
        "longitude": -122.37672049999999
      },
      "address": "6421 15th Ave NW # A, Seattle",
      "maps_url": "https://maps.google.com/?cid=2826934517073913435&g_mp=Cilnb29nbGUubWFwcy5wbGFjZXMudjEuUGxhY2VzLlNlYXJjaE5lYXJieRACGAQgAA"
    },
    {
      "name": "Un Bien",
      "place_id": "ChIJmygCmiwUkFQRkiQWrGJM37I",
      "type": "Caribbean Restaurant",
      "rating": 4.8,
      "user_ratings_total": 2248,
      "location": {
        "latitude": 47.681693499999994,
        "longitude": -122.37654570000001
      },
      "address": "7302.5 15th Ave NW, Seattle",
      "maps_url": "https://maps.google.com/?cid=12889104645235287186&g_mp=Cilnb29nbGUubWFwcy5wbGFjZXMudjEuUGxhY2VzLlNlYXJjaE5lYXJieRACGAQgAA"
    },
    {
      "name": "Local Tide",
      "place_id": "ChIJ4VxIRqcVkFQRXQkynR8nwwc",
      "type": "Seafood Restaurant",
      "rating": 4.8,
      "user_ratings_total": 1439,
      "location": {
        "latitude": 47.6519501,
        "longitude": -122.35388879999998
      },
      "address": "401 N 36th St UNIT 103, Seattle",
      "maps_url": "https://maps.google.com/?cid=559333795458845021&g_mp=Cilnb29nbGUubWFwcy5wbGFjZXMudjEuUGxhY2VzLlNlYXJjaE5lYXJieRACGAQgAA"
    },
    {
      "name": "Shawarma Time",
      "place_id": "ChIJRes0cQ4VkFQRIp0DDSXg5dg",
      "type": "Mediterranean Restaurant",
      "rating": 4.8,
      "user_ratings_total": 1281,
      "location": {
        "latitude": 47.668332,
        "longitude": -122.38232649999999
      },
      "address": "5407 20th Ave NW, Seattle",
      "maps_url": "https://maps.google.com/?cid=15629144531595926818&g_mp=Cilnb29nbGUubWFwcy5wbGFjZXMudjEuUGxhY2VzLlNlYXJjaE5lYXJieRACGAQgAA"
    },
    {
      "name": "Un Bien",
      "place_id": "ChIJyZZtRt4VkFQRyKV9O42IEqc",
      "type": "Sandwich Shop",
      "rating": 4.8,
      "user_ratings_total": 837,
      "location": {
        "latitude": 47.6748262,
        "longitude": -122.40616519999999
      },
      "address": "6226 Seaview Ave NW, Seattle",
      "maps_url": "https://maps.google.com/?cid=12038834894084613576&g_mp=Cilnb29nbGUubWFwcy5wbGFjZXMudjEuUGxhY2VzLlNlYXJjaE5lYXJieRACGAQgAA"
    },
    {
      "name": "Mas Cafe",
      "place_id": "ChIJOailZmoVkFQRQAehkV1h_nU",
      "type": "Restaurant",
      "rating": 4.8,
      "user_ratings_total": 650,
      "location": {
        "latitude": 47.648203699999996,
        "longitude": -122.33462170000001
      },
      "address": "1906 N 34th St, Seattle",
      "maps_url": "https://maps.google.com/?cid=8502340201025177408&g_mp=Cilnb29nbGUubWFwcy5wbGFjZXMudjEuUGxhY2VzLlNlYXJjaE5lYXJieRACGAQgAA"
    },
    {
      "name": "Bale Breaker & Yonder Cider Taproom",
      "place_id": "ChIJRax5I1kVkFQRi-GnqA6sr5g",
      "type": "Brewpub",
      "rating": 4.8,
      "user_ratings_total": 613,
      "location": {
        "latitude": 47.664613599999996,
        "longitude": -122.3675796
      },
      "address": "826 NW 49th St, Seattle",
      "maps_url": "https://maps.google.com/?cid=11002201593648505227&g_mp=Cilnb29nbGUubWFwcy5wbGFjZXMudjEuUGxhY2VzLlNlYXJjaE5lYXJieRACGAQgAA"
    },
    {
      "name": "Gorgeous George's",
      "place_id": "ChIJscvSYiMUkFQRQO1QwpY2OFw",
      "type": "Mediterranean Restaurant",
      "rating": 4.8,
      "user_ratings_total": 563,
      "location": {
        "latitude": 47.6853634,
        "longitude": -122.3556026
      },
      "address": "7719 Greenwood Ave N, Seattle",
      "maps_url": "https://maps.google.com/?cid=6645121271318244672&g_mp=Cilnb29nbGUubWFwcy5wbGFjZXMudjEuUGxhY2VzLlNlYXJjaE5lYXJieRACGAQgAA"
    },
    {
      "name": "Take 5 Urban Market",
      "place_id": "ChIJUVD7-jEUkFQRVoXRTe7anu8",
      "type": "Grocery Store",
      "rating": 4.8,
      "user_ratings_total": 410,
      "location": {
        "latitude": 47.6794556,
        "longitude": -122.36625000000001
      },
      "address": "6757 8th Ave NW, Seattle",
      "maps_url": "https://maps.google.com/?cid=17266478738427708758&g_mp=Cilnb29nbGUubWFwcy5wbGFjZXMudjEuUGxhY2VzLlNlYXJjaE5lYXJieRACGAQgAA"
    },
    {
      "name": "Maria Luisa Empanadas",
      "place_id": "ChIJif16rhRBkFQR1yRvm14Fkps",
      "type": "Restaurant",
      "rating": 4.8,
      "user_ratings_total": 341,
      "location": {
        "latitude": 47.663900899999994,
        "longitude": -122.37002269999999
      },
      "address": "928 NW Leary Wy Suite #102, Seattle",
      "maps_url": "https://maps.google.com/?cid=11210028326371402967&g_mp=Cilnb29nbGUubWFwcy5wbGFjZXMudjEuUGxhY2VzLlNlYXJjaE5lYXJieRACGAQgAA"
    },
    {
      "name": "The Couth Buzzard - Books & Community",
      "place_id": "ChIJpUpjhSEUkFQR0C_DHiPof-Q",
      "type": "Book Store",
      "rating": 4.8,
      "user_ratings_total": 338,
      "location": {
        "latitude": 47.689532199999995,
        "longitude": -122.35514169999998
      },
      "address": "8310 Greenwood Ave N, Seattle",
      "maps_url": "https://maps.google.com/?cid=16465134000227430352&g_mp=Cilnb29nbGUubWFwcy5wbGFjZXMudjEuUGxhY2VzLlNlYXJjaE5lYXJieRACGAQgAA"
    },
    {
      "name": "My Friend Derek’s",
      "place_id": "ChIJk56DkvYVkFQRSUYWuOae1As",
      "type": "Pizza Restaurant",
      "rating": 4.8,
      "user_ratings_total": 316,
      "location": {
        "latitude": 47.6689252,
        "longitude": -122.33347809999998
      },
      "address": "2108 N 55th St, Seattle",
      "maps_url": "https://maps.google.com/?cid=852480943248000585&g_mp=Cilnb29nbGUubWFwcy5wbGFjZXMudjEuUGxhY2VzLlNlYXJjaE5lYXJieRACGAQgAA"
    },
    {
      "name": "MIGAKU",
      "place_id": "ChIJ3cWntM0VkFQRMmfWXCvfCmE",
      "type": "Japanese Restaurant",
      "rating": 4.8,
      "user_ratings_total": 251,
      "location": {
        "latitude": 47.6739341,
        "longitude": -122.37648259999999
      },
      "address": "6201 15th Ave NW, Seattle",
      "maps_url": "https://maps.google.com/?cid=6992646748780259122&g_mp=Cilnb29nbGUubWFwcy5wbGFjZXMudjEuUGxhY2VzLlNlYXJjaE5lYXJieRACGAQgAA"
    },
    {
      "name": "RidgeWood Bottle & Tap",
      "place_id": "ChIJbT3UxJsVkFQRTHpHuIDQR7c",
      "type": "Bar",
      "rating": 4.8,
      "user_ratings_total": 245,
      "location": {
        "latitude": 47.677886699999995,
        "longitude": -122.354581
      },
      "address": "316 N 67th St, Seattle",
      "maps_url": "https://maps.google.com/?cid=13206753683553352268&g_mp=Cilnb29nbGUubWFwcy5wbGFjZXMudjEuUGxhY2VzLlNlYXJjaE5lYXJieRACGAQgAA"
    },
    {
      "name": "Kipos Greek",
      "place_id": "ChIJB7x4l3AVkFQRXwAYMJ2hWRY",
      "type": "Greek Restaurant",
      "rating": 4.8,
      "user_ratings_total": 230,
      "location": {
        "latitude": 47.672285599999995,
        "longitude": -122.35412989999999
      },
      "address": "5914 Phinney Ave N, Seattle",
      "maps_url": "https://maps.google.com/?cid=1610496038250479711&g_mp=Cilnb29nbGUubWFwcy5wbGFjZXMudjEuUGxhY2VzLlNlYXJjaE5lYXJieRACGAQgAA"
    },
    {
      "name": "Olympia Pizza & Spaghetti House II",
      "place_id": "ChIJ64ovHvAVkFQR00GN-UU53so",
      "type": "Pizza Restaurant",
      "rating": 4.8,
      "user_ratings_total": 223,
      "location": {
        "latitude": 47.6615214,
        "longitude": -122.34088140000001
      },
      "address": "4501 Interlake Ave N, Seattle",
      "maps_url": "https://maps.google.com/?cid=14618184413193519571&g_mp=Cilnb29nbGUubWFwcy5wbGFjZXMudjEuUGxhY2VzLlNlYXJjaE5lYXJieRACGAQgAA"
    },
    {
      "name": "45th Vegetarian Thai",
      "place_id": "ChIJB9L2kHsVkFQRZXuztqO5D0Q",
      "type": "Thai Restaurant",
      "rating": 4.8,
      "user_ratings_total": 207,
      "location": {
        "latitude": 47.6615765,
        "longitude": -122.3369038
      },
      "address": "1718 N 45th St, Seattle",
      "maps_url": "https://maps.google.com/?cid=4904342632025783141&g_mp=Cilnb29nbGUubWFwcy5wbGFjZXMudjEuUGxhY2VzLlNlYXJjaE5lYXJieRACGAQgAA"
    },
    {
      "name": "Baskette",
      "place_id": "ChIJC_y_eh4VkFQRFDh5quLvOxc",
      "type": "Cafe",
      "rating": 4.8,
      "user_ratings_total": 201,
      "location": {
        "latitude": 47.6610953,
        "longitude": -122.35037000000001
      },
      "address": "4459 Fremont Ave N Ste 1, Seattle",
      "maps_url": "https://maps.google.com/?cid=1674195443299989524&g_mp=Cilnb29nbGUubWFwcy5wbGFjZXMudjEuUGxhY2VzLlNlYXJjaE5lYXJieRACGAQgAA"
    },
    {
      "name": "Esters Enoteca",
      "place_id": "ChIJAV8i0zkVkFQRsicBeuZ0wdY",
      "type": "Restaurant",
      "rating": 4.8,
      "user_ratings_total": 201,
      "location": {
        "latitude": 47.650113,
        "longitude": -122.34953
      },
      "address": "3416 Fremont Ave N, Seattle",
      "maps_url": "https://maps.google.com/?cid=15474778327859931058&g_mp=Cilnb29nbGUubWFwcy5wbGFjZXMudjEuUGxhY2VzLlNlYXJjaE5lYXJieRACGAQgAA"
    },
    {
      "name": "MINATO",
      "place_id": "ChIJ4V1Oi7AVkFQRUb7fVPRa-aI",
      "type": "Japanese Restaurant",
      "rating": 4.8,
      "user_ratings_total": 172,
      "location": {
        "latitude": 47.6616114,
        "longitude": -122.33841419999999
      },
      "address": "1616 N 45th St, Seattle",
      "maps_url": "https://maps.google.com/?cid=11743517508787748433&g_mp=Cilnb29nbGUubWFwcy5wbGFjZXMudjEuUGxhY2VzLlNlYXJjaE5lYXJieRACGAQgAA"
    },
    {
      "name": "Taqueria Mi Barrio",
      "place_id": "ChIJB7RGQsoVkFQRWYVrRJZpSIs",
      "type": "Taco Restaurant",
      "rating": 4.8,
      "user_ratings_total": 169,
      "location": {
        "latitude": 47.6396666,
        "longitude": -122.37861070000001
      },
      "address": "1700 W Armory Way, Seattle",
      "maps_url": "https://maps.google.com/?cid=10036387863709058393&g_mp=Cilnb29nbGUubWFwcy5wbGFjZXMudjEuUGxhY2VzLlNlYXJjaE5lYXJieRACGAQgAA"
    },
    {
      "name": "SpoonFull Thai Kitchen & Bar",
      "place_id": "ChIJz-5sJwAVkFQRHxiBDrvv008",
      "type": "Thai Restaurant",
      "rating": 4.8,
      "user_ratings_total": 166,
      "location": {
        "latitude": 47.666100799999995,
        "longitude": -122.38248910000002
      },
      "address": "5210 Ballard Ave NW, Seattle",
      "maps_url": "https://maps.google.com/?cid=5752204735763519519&g_mp=Cilnb29nbGUubWFwcy5wbGFjZXMudjEuUGxhY2VzLlNlYXJjaE5lYXJieRACGAQgAA"
    },
    {
      "name": "Yume Sushi",
      "place_id": "ChIJAQB7X4AVkFQRDl-kSXjiVfc",
      "type": "Sushi Restaurant",
      "rating": 4.8,
      "user_ratings_total": 162,
      "location": {
        "latitude": 47.6393807,
        "longitude": -122.39912670000001
      },
      "address": "3217 W McGraw St, Seattle",
      "maps_url": "https://maps.google.com/?cid=17822400106648067854&g_mp=Cilnb29nbGUubWFwcy5wbGFjZXMudjEuUGxhY2VzLlNlYXJjaE5lYXJieRACGAQgAA"
    },
    {
      "name": "Biscuit & Bean",
      "place_id": "ChIJgd2EHAAVkFQRq7NgtXmli3o",
      "type": "Cafe",
      "rating": 4.8,
      "user_ratings_total": 126,
      "location": {
        "latitude": 47.667286,
        "longitude": -122.3826342
      },
      "address": "5404 Leary Ave NW, Seattle",
      "maps_url": "https://maps.google.com/?cid=8830333436542628779&g_mp=Cilnb29nbGUubWFwcy5wbGFjZXMudjEuUGxhY2VzLlNlYXJjaE5lYXJieRACGAQgAA"
    },
    {
      "name": "Greenlake Guest House",
      "place_id": "ChIJtTpp8RMUkFQRosGBPntos5w",
      "type": "Bed & Breakfast",
      "rating": 4.8,
      "user_ratings_total": 125,
      "location": {
        "latitude": 47.6837181,
        "longitude": -122.3339188
      },
      "address": "7630 East Green Lake Dr N, Seattle",
      "maps_url": "https://maps.google.com/?cid=11291483569286922658&g_mp=Cilnb29nbGUubWFwcy5wbGFjZXMudjEuUGxhY2VzLlNlYXJjaE5lYXJieRACGAQgAA"
    },
    {
      "name": "Gyro SABABA (UW)",
      "place_id": "ChIJFSTeQSIVkFQRS67JiCZpZGo",
      "type": "Mediterranean Restaurant",
      "rating": 4.8,
      "user_ratings_total": 119,
      "location": {
        "latitude": 47.6634235,
        "longitude": -122.3177482
      },
      "address": "4701 Roosevelt Way NE, Seattle",
      "maps_url": "https://maps.google.com/?cid=7666368079916019275&g_mp=Cilnb29nbGUubWFwcy5wbGFjZXMudjEuUGxhY2VzLlNlYXJjaE5lYXJieRACGAQgAA"
    },
    {
      "name": "PARAN korean grill",
      "place_id": "ChIJqwZruVUVkFQRBG5DINJQ5o8",
      "type": "Restaurant",
      "rating": 4.8,
      "user_ratings_total": 115,
      "location": {
        "latitude": 47.6503666,
        "longitude": -122.349635
      },
      "address": "3424 Fremont Ave N, Seattle",
      "maps_url": "https://maps.google.com/?cid=10369064055481789956&g_mp=Cilnb29nbGUubWFwcy5wbGFjZXMudjEuUGxhY2VzLlNlYXJjaE5lYXJieRACGAQgAA"
    },
    {
      "name": "Ray's Rice & Noodle Bar",
      "place_id": "ChIJ2YYFQfQVkFQRzuG_X0JK3Xg",
      "type": "Thai Restaurant",
      "rating": 4.8,
      "user_ratings_total": 114,
      "location": {
        "latitude": 47.689668499999996,
        "longitude": -122.35565609999999
      },
      "address": "8317 Greenwood Ave N, Seattle",
      "maps_url": "https://maps.google.com/?cid=8709198903339114958&g_mp=Cilnb29nbGUubWFwcy5wbGFjZXMudjEuUGxhY2VzLlNlYXJjaE5lYXJieRACGAQgAA"
    },
    {
      "name": "Marmalade",
      "place_id": "ChIJa4DTANQVkFQRcBIuzhyGcpc",
      "type": "Cafe",
      "rating": 4.8,
      "user_ratings_total": 111,
      "location": {
        "latitude": 47.6576374,
        "longitude": -122.34960269999999
      },
      "address": "4128 Fremont Ave N, Seattle",
      "maps_url": "https://maps.google.com/?cid=10912932305348465264&g_mp=Cilnb29nbGUubWFwcy5wbGFjZXMudjEuUGxhY2VzLlNlYXJjaE5lYXJieRACGAQgAA"
    },
    {
      "name": "Kaspars Catering & Events",
      "place_id": "ChIJrcfBnkQVkFQRGYHnOV5Zqhw",
      "type": "Caterer",
      "rating": 4.8,
      "user_ratings_total": 89,
      "location": {
        "latitude": 47.6539384,
        "longitude": -122.4006851
      },
      "address": "3656 34th Ave W, Seattle",
      "maps_url": "https://maps.google.com/?cid=2065561640336064793&g_mp=Cilnb29nbGUubWFwcy5wbGFjZXMudjEuUGxhY2VzLlNlYXJjaE5lYXJieRACGAQgAA"
    },
    {
      "name": "Draft Punk Seattle",
      "place_id": "ChIJwdGnD5sVkFQR0rufaYYlDn0",
      "type": "Bar",
      "rating": 4.8,
      "user_ratings_total": 76,
      "location": {
        "latitude": 47.6849219,
        "longitude": -122.3550599
      },
      "address": "7702 Greenwood Ave N, Seattle",
      "maps_url": "https://maps.google.com/?cid=9011181163642862546&g_mp=Cilnb29nbGUubWFwcy5wbGFjZXMudjEuUGxhY2VzLlNlYXJjaE5lYXJieRACGAQgAA"
    },
    {
      "name": "Robin's Restaurant and Market",
      "place_id": "ChIJgyGS-qEVkFQRci8JI6C7Gx4",
      "type": "Restaurant",
      "rating": 4.8,
      "user_ratings_total": 72,
      "location": {
        "latitude": 47.652874999999995,
        "longitude": -122.34278330000001
      },
      "address": "3801 Stone Way N Suite A, Seattle",
      "maps_url": "https://maps.google.com/?cid=2169533941965991794&g_mp=Cilnb29nbGUubWFwcy5wbGFjZXMudjEuUGxhY2VzLlNlYXJjaE5lYXJieRACGAQgAA"
    },
    {
      "name": "Mr. Maqluba",
      "place_id": "ChIJv9EJw58VkFQRwRvUb25SRaA",
      "type": "Restaurant",
      "rating": 4.8,
      "user_ratings_total": 63,
      "location": {
        "latitude": 47.6908915,
        "longitude": -122.35506939999998
      },
      "address": "8516 Greenwood Ave N, Seattle",
      "maps_url": "https://maps.google.com/?cid=11548727453737556929&g_mp=Cilnb29nbGUubWFwcy5wbGFjZXMudjEuUGxhY2VzLlNlYXJjaE5lYXJieRACGAQgAA"
    },
    {
      "name": "La Marea Marisqueria",
      "place_id": "ChIJc9LYx2gVkFQRMP1HAEFw8i0",
      "type": "Mexican Restaurant",
      "rating": 4.8,
      "user_ratings_total": 53,
      "location": {
        "latitude": 47.664561199999994,
        "longitude": -122.37012369999998
      },
      "address": "936 NW 49th St, Seattle",
      "maps_url": "https://maps.google.com/?cid=3310832100550638896&g_mp=Cilnb29nbGUubWFwcy5wbGFjZXMudjEuUGxhY2VzLlNlYXJjaE5lYXJieRACGAQgAA"
    },
    {
      "name": "Figurehead Stone Way",
      "place_id": "ChIJAwFImMMVkFQRI__a1qGhE9Q",
      "type": "Restaurant",
      "rating": 4.8,
      "user_ratings_total": 49,
      "location": {
        "latitude": 47.6499607,
        "longitude": -122.34310869999999
      },
      "address": "3513 Stone Way N, Seattle",
      "maps_url": "https://maps.google.com/?cid=15281735677064707875&g_mp=Cilnb29nbGUubWFwcy5wbGFjZXMudjEuUGxhY2VzLlNlYXJjaE5lYXJieRACGAQgAA"
    },
    {
      "name": "Noor Bakery",
      "place_id": "ChIJSwlGgqkXkFQRJdv74K0YM0A",
      "type": "Halal Restaurant",
      "rating": 4.8,
      "user_ratings_total": 33,
      "location": {
        "latitude": 47.704871499999996,
        "longitude": -122.35427489999998
      },
      "address": "323 N 105th St Suite b, Seattle",
      "maps_url": "https://maps.google.com/?cid=4626068377322642213&g_mp=Cilnb29nbGUubWFwcy5wbGFjZXMudjEuUGxhY2VzLlNlYXJjaE5lYXJieRACGAQgAA"
    },
    {
      "name": "Shaka Snacks",
      "place_id": "ChIJgcOt25oVkFQRun3E_05guoA",
      "type": "Hawaiian Restaurant",
      "rating": 4.8,
      "user_ratings_total": 32,
      "location": {
        "latitude": 47.6695555,
        "longitude": -122.317251
      },
      "address": "5600 Roosevelt Way NE #109, Seattle",
      "maps_url": "https://maps.google.com/?cid=9275832274937740730&g_mp=Cilnb29nbGUubWFwcy5wbGFjZXMudjEuUGxhY2VzLlNlYXJjaE5lYXJieRACGAQgAA"
    },
    {
      "name": "Setolicious",
      "place_id": "ChIJBbLEWWFBkFQRWtoeMmVd4V0",
      "type": "Delivery Restaurant",
      "rating": 4.8,
      "user_ratings_total": 31,
      "location": {
        "latitude": 47.694338099999996,
        "longitude": -122.3770944
      },
      "address": "8773 15th Ave NW, Seattle",
      "maps_url": "https://maps.google.com/?cid=6764790804501158490&g_mp=Cilnb29nbGUubWFwcy5wbGFjZXMudjEuUGxhY2VzLlNlYXJjaE5lYXJieRACGAQgAA"
    },
    {
      "name": "Salad Party",
      "place_id": "ChIJE5GncpgVkFQRQ7-XvWnF8qg",
      "type": "Restaurant",
      "rating": 4.8,
      "user_ratings_total": 31,
      "location": {
        "latitude": 47.6793984,
        "longitude": -122.35507469999999
      },
      "address": "6820 Greenwood Ave N, Seattle",
      "maps_url": "https://maps.google.com/?cid=12174009800678948675&g_mp=Cilnb29nbGUubWFwcy5wbGFjZXMudjEuUGxhY2VzLlNlYXJjaE5lYXJieRACGAQgAA"
    },
    {
      "name": "Mox Boarding House",
      "place_id": "ChIJq4gnjMcVkFQRFWV3mPF7z7M",
      "type": "Store",
      "rating": 4.7,
      "user_ratings_total": 3707,
      "location": {
        "latitude": 47.664944399999996,
        "longitude": -122.38053330000001
      },
      "address": "5105 Leary Ave NW, Seattle",
      "maps_url": "https://maps.google.com/?cid=12956710930543502613&g_mp=Cilnb29nbGUubWFwcy5wbGFjZXMudjEuUGxhY2VzLlNlYXJjaE5lYXJieRACGAQgAA"
    },
    {
      "name": "Bongos",
      "place_id": "ChIJA9bQvzgUkFQRpFNnEu5lcPk",
      "type": "Caribbean Restaurant",
      "rating": 4.7,
      "user_ratings_total": 3098,
      "location": {
        "latitude": 47.6767501,
        "longitude": -122.34690110000001
      },
      "address": "6501 Aurora Ave N, Seattle",
      "maps_url": "https://maps.google.com/?cid=17973978186021032868&g_mp=Cilnb29nbGUubWFwcy5wbGFjZXMudjEuUGxhY2VzLlNlYXJjaE5lYXJieRACGAQgAA"
    },
    {
      "name": "Fremont Brewing's Urban Beer Garden",
      "place_id": "ChIJ75GmYwEVkFQR8zzS82BwLVQ",
      "type": "Brewery",
      "rating": 4.7,
      "user_ratings_total": 2011,
      "location": {
        "latitude": 47.64905170000001,
        "longitude": -122.3444459
      },
      "address": "1050 N 34th St, Seattle",
      "maps_url": "https://maps.google.com/?cid=6065627834847739123&g_mp=Cilnb29nbGUubWFwcy5wbGFjZXMudjEuUGxhY2VzLlNlYXJjaE5lYXJieRACGAQgAA"
    },
    {
      "name": "Chuck's Hop Shop Greenwood",
      "place_id": "ChIJYTPqYycUkFQRUIA3GZD6ykc",
      "type": "Bar",
      "rating": 4.7,
      "user_ratings_total": 1741,
      "location": {
        "latitude": 47.6908959,
        "longitude": -122.3657854
      },
      "address": "656 NW 85th St, Seattle",
      "maps_url": "https://maps.google.com/?cid=5173222618793738320&g_mp=Cilnb29nbGUubWFwcy5wbGFjZXMudjEuUGxhY2VzLlNlYXJjaE5lYXJieRACGAQgAA"
    },
    {
      "name": "Mean Sandwich",
      "place_id": "ChIJT_pwJLgVkFQRnEf20bhnIeM",
      "type": "Sandwich Shop",
      "rating": 4.7,
      "user_ratings_total": 1210,
      "location": {
        "latitude": 47.663821399999996,
        "longitude": -122.3769155
      },
      "address": "1510 NW Leary Wy, Seattle",
      "maps_url": "https://maps.google.com/?cid=16366476564335314844&g_mp=Cilnb29nbGUubWFwcy5wbGFjZXMudjEuUGxhY2VzLlNlYXJjaE5lYXJieRACGAQgAA"
    },
    {
      "name": "Byen Bakeri",
      "place_id": "ChIJJ7e5_AcVkFQRr_2IfnRk_Uo",
      "type": "Bakery",
      "rating": 4.7,
      "user_ratings_total": 1194,
      "location": {
        "latitude": 47.649314399999994,
        "longitude": -122.35701519999999
      },
      "address": "15 Nickerson St, Seattle",
      "maps_url": "https://maps.google.com/?cid=5403585579416354223&g_mp=Cilnb29nbGUubWFwcy5wbGFjZXMudjEuUGxhY2VzLlNlYXJjaE5lYXJieRACGAQgAA"
    },
    {
      "name": "Frelard Tamales",
      "place_id": "ChIJ3Y6y1ZoVkFQRg7kaJ5MFfDM",
      "type": "Mexican Restaurant",
      "rating": 4.7,
      "user_ratings_total": 1099,
      "location": {
        "latitude": 47.6530822,
        "longitude": -122.35747699999999
      },
      "address": "106 N 36th St Suite 100, Seattle",
      "maps_url": "https://maps.google.com/?cid=3709846322620840323&g_mp=Cilnb29nbGUubWFwcy5wbGFjZXMudjEuUGxhY2VzLlNlYXJjaE5lYXJieRACGAQgAA"
    },
    {
      "name": "Valhalla Sandwiches Greenwood",
      "place_id": "ChIJEwG5LCIUkFQRdMvVKp_x2Yw",
      "type": "Sandwich Shop",
      "rating": 4.7,
      "user_ratings_total": 1073,
      "location": {
        "latitude": 47.6885775,
        "longitude": -122.35511
      },
      "address": "8202 Greenwood Ave N, Seattle",
      "maps_url": "https://maps.google.com/?cid=10149408901176871796&g_mp=Cilnb29nbGUubWFwcy5wbGFjZXMudjEuUGxhY2VzLlNlYXJjaE5lYXJieRACGAQgAA"
    },
    {
      "name": "Pi Vegan Pizzeria",
      "place_id": "ChIJHTmPkmMUkFQRRZ9H9kclNqw",
      "type": "Vegan Restaurant",
      "rating": 4.7,
      "user_ratings_total": 1010,
      "location": {
        "latitude": 47.6672806,
        "longitude": -122.317741
      },
      "address": "5301 Roosevelt Way NE, Seattle",
      "maps_url": "https://maps.google.com/?cid=12409146814270775109&g_mp=Cilnb29nbGUubWFwcy5wbGFjZXMudjEuUGxhY2VzLlNlYXJjaE5lYXJieRACGAQgAA"
    },
    {
      "name": "Lucky's Pho",
      "place_id": "ChIJdQBNLwcVkFQR0xnQaZx6tRA",
      "type": "Restaurant",
      "rating": 4.7,
      "user_ratings_total": 931,
      "location": {
        "latitude": 47.6500795,
        "longitude": -122.3495878
      },
      "address": "3414 Fremont Ave N, Seattle",
      "maps_url": "https://maps.google.com/?cid=1204003287600208339&g_mp=Cilnb29nbGUubWFwcy5wbGFjZXMudjEuUGxhY2VzLlNlYXJjaE5lYXJieRACGAQgAA"
    },
    {
      "name": "Amazing Thai Cuisine",
      "place_id": "ChIJM0HMI2EUkFQRJNneprez444",
      "type": "Thai Restaurant",
      "rating": 4.7,
      "user_ratings_total": 896,
      "location": {
        "latitude": 47.66679560000001,
        "longitude": -122.317162
      },
      "address": "5210 Roosevelt Way NE, Seattle",
      "maps_url": "https://maps.google.com/?cid=10296270774459095332&g_mp=Cilnb29nbGUubWFwcy5wbGFjZXMudjEuUGxhY2VzLlNlYXJjaE5lYXJieRACGAQgAA"
    },
    {
      "name": "Yanni's Greek Restaurant",
      "place_id": "ChIJ7Tv8NTsUkFQRDmfvRdj8Q-o",
      "type": "Greek Restaurant",
      "rating": 4.7,
      "user_ratings_total": 817,
      "location": {
        "latitude": 47.6830683,
        "longitude": -122.35557779999999
      },
      "address": "7419 Greenwood Ave N, Seattle",
      "maps_url": "https://maps.google.com/?cid=16880613834131203854&g_mp=Cilnb29nbGUubWFwcy5wbGFjZXMudjEuUGxhY2VzLlNlYXJjaE5lYXJieRACGAQgAA"
    },
    {
      "name": "Seattle Biscuit Company",
      "place_id": "ChIJI99nBq8VkFQR20ovKAWMoTE",
      "type": "Brunch Restaurant",
      "rating": 4.7,
      "user_ratings_total": 810,
      "location": {
        "latitude": 47.6562114,
        "longitude": -122.3624581
      },
      "address": "4001 NW Leary Wy, Seattle",
      "maps_url": "https://maps.google.com/?cid=3576293532885797595&g_mp=Cilnb29nbGUubWFwcy5wbGFjZXMudjEuUGxhY2VzLlNlYXJjaE5lYXJieRACGAQgAA"
    },
    {
      "name": "45th Stop N Shop & Poke Bar",
      "place_id": "ChIJExRzq1kUkFQRSeE3bpjcwyA",
      "type": "Hawaiian Restaurant",
      "rating": 4.7,
      "user_ratings_total": 795,
      "location": {
        "latitude": 47.6612578,
        "longitude": -122.33034760000001
      },
      "address": "2323 N 45th St, Seattle",
      "maps_url": "https://maps.google.com/?cid=2360973176914567497&g_mp=Cilnb29nbGUubWFwcy5wbGFjZXMudjEuUGxhY2VzLlNlYXJjaE5lYXJieRACGAQgAA"
    },
    {
      "name": "Lupo",
      "place_id": "ChIJB2r1NlMUkFQRMPEnsDpRkjY",
      "type": "Pizza Restaurant",
      "rating": 4.7,
      "user_ratings_total": 781,
      "location": {
        "latitude": 47.659143099999994,
        "longitude": -122.3502094
      },
      "address": "4303 Fremont Ave N, Seattle",
      "maps_url": "https://maps.google.com/?cid=3932294737153225008&g_mp=Cilnb29nbGUubWFwcy5wbGFjZXMudjEuUGxhY2VzLlNlYXJjaE5lYXJieRACGAQgAA"
    },
    {
      "name": "Miss Pho",
      "place_id": "ChIJKTEYvLMXkFQRvanKVsai514",
      "type": "Vietnamese Restaurant",
      "rating": 4.7,
      "user_ratings_total": 759,
      "location": {
        "latitude": 47.702251399999994,
        "longitude": -122.36259459999998
      },
      "address": "10023 Holman Rd NW, Seattle",
      "maps_url": "https://maps.google.com/?cid=6838613531928734141&g_mp=Cilnb29nbGUubWFwcy5wbGFjZXMudjEuUGxhY2VzLlNlYXJjaE5lYXJieRACGAQgAA"
    },
    {
      "name": "S/T Hooligans",
      "place_id": "ChIJg6YIc5AVkFQRfrEBBKYFfHQ",
      "type": "American Restaurant",
      "rating": 4.7,
      "user_ratings_total": 704,
      "location": {
        "latitude": 47.660233100000006,
        "longitude": -122.36566709999998
      },
      "address": "4354 NW Leary Wy, Seattle",
      "maps_url": "https://maps.google.com/?cid=8393590016101691774&g_mp=Cilnb29nbGUubWFwcy5wbGFjZXMudjEuUGxhY2VzLlNlYXJjaE5lYXJieRACGAQgAA"
    },
    {
      "name": "SWeL Restaurant",
      "place_id": "ChIJ_2PuQQcVkFQRf38j7opf3_4",
      "type": "Restaurant",
      "rating": 4.7,
      "user_ratings_total": 685,
      "location": {
        "latitude": 47.6506587,
        "longitude": -122.35172569999999
      },
      "address": "3417 Evanston Ave N UNIT 104, Seattle",
      "maps_url": "https://maps.google.com/?cid=18365502855745601407&g_mp=Cilnb29nbGUubWFwcy5wbGFjZXMudjEuUGxhY2VzLlNlYXJjaE5lYXJieRACGAQgAA"
    },
    {
      "name": "Aroom Coffee Fremont",
      "place_id": "ChIJXdf_zd0VkFQRCZssDEesjrA",
      "type": "Coffee Shop",
      "rating": 4.7,
      "user_ratings_total": 675,
      "location": {
        "latitude": 47.653208799999994,
        "longitude": -122.34282979999999
      },
      "address": "3801 Stone Way N Suite C, Seattle",
      "maps_url": "https://maps.google.com/?cid=12722295418515135241&g_mp=Cilnb29nbGUubWFwcy5wbGFjZXMudjEuUGxhY2VzLlNlYXJjaE5lYXJieRACGAQgAA"
    },
    {
      "name": "Ballard Kiss Cafe",
      "place_id": "ChIJLdAdnsMVkFQRsVaZWhpHEfg",
      "type": "Sandwich Shop",
      "rating": 4.7,
      "user_ratings_total": 545,
      "location": {
        "latitude": 47.668508300000006,
        "longitude": -122.39358100000001
      },
      "address": "2817 NW Market St, Seattle",
      "maps_url": "https://maps.google.com/?cid=17875146574524929713&g_mp=Cilnb29nbGUubWFwcy5wbGFjZXMudjEuUGxhY2VzLlNlYXJjaE5lYXJieRACGAQgAA"
    },
    {
      "name": "Pizzeria La Rocca",
      "place_id": "ChIJ-XWGS3YVkFQRKv-0ty-gf_4",
      "type": "Italian Restaurant",
      "rating": 4.7,
      "user_ratings_total": 537,
      "location": {
        "latitude": 47.6900943,
        "longitude": -122.3550221
      },
      "address": "8404 Greenwood Ave N, Seattle",
      "maps_url": "https://maps.google.com/?cid=18338552334481948458&g_mp=Cilnb29nbGUubWFwcy5wbGFjZXMudjEuUGxhY2VzLlNlYXJjaE5lYXJieRACGAQgAA"
    },
    {
      "name": "Pink Bee Thai Food +",
      "place_id": "ChIJAQCrVs8VkFQRXKfw9X02Szo",
      "type": "Thai Restaurant",
      "rating": 4.7,
      "user_ratings_total": 523,
      "location": {
        "latitude": 47.6696094,
        "longitude": -122.38274030000001
      },
      "address": "2010 NW 56th St, Seattle",
      "maps_url": "https://maps.google.com/?cid=4200510992078120796&g_mp=Cilnb29nbGUubWFwcy5wbGFjZXMudjEuUGxhY2VzLlNlYXJjaE5lYXJieRACGAQgAA"
    },
    {
      "name": "Sunny Hill",
      "place_id": "ChIJUUj0ydIXkFQRXFgrfw1yq6g",
      "type": "Pizza Restaurant",
      "rating": 4.7,
      "user_ratings_total": 488,
      "location": {
        "latitude": 47.6904269,
        "longitude": -122.39796500000001
      },
      "address": "3127 NW 85th St, Seattle",
      "maps_url": "https://maps.google.com/?cid=12153933421683103836&g_mp=Cilnb29nbGUubWFwcy5wbGFjZXMudjEuUGxhY2VzLlNlYXJjaE5lYXJieRACGAQgAA"
    },
    {
      "name": "Union Saloon",
      "place_id": "ChIJuTAgif4UkFQRvbgTvF8wqW8",
      "type": "American Restaurant",
      "rating": 4.7,
      "user_ratings_total": 450,
      "location": {
        "latitude": 47.6518279,
        "longitude": -122.33647719999998
      },
      "address": "3645 Wallingford Ave N, Seattle",
      "maps_url": "https://maps.google.com/?cid=8046015397009537213&g_mp=Cilnb29nbGUubWFwcy5wbGFjZXMudjEuUGxhY2VzLlNlYXJjaE5lYXJieRACGAQgAA"
    },
    {
      "name": "Korochka Tavern",
      "place_id": "ChIJeaXlXmMRkFQRqRExg5NHzew",
      "type": "Cocktail Bar",
      "rating": 4.7,
      "user_ratings_total": 449,
      "location": {
        "latitude": 47.6612404,
        "longitude": -122.3305777
      },
      "address": "2317 N 45th St, Seattle",
      "maps_url": "https://maps.google.com/?cid=17063373262063473065&g_mp=Cilnb29nbGUubWFwcy5wbGFjZXMudjEuUGxhY2VzLlNlYXJjaE5lYXJieRACGAQgAA"
    },
    {
      "name": "Restaurant Christine",
      "place_id": "ChIJtRhlJXoVkFQRFpHK9gK4OdI",
      "type": "American Restaurant",
      "rating": 4.7,
      "user_ratings_total": 397,
      "location": {
        "latitude": 47.668796099999994,
        "longitude": -122.331777
      },
      "address": "2227 N 56th St, Seattle",
      "maps_url": "https://maps.google.com/?cid=15148341144507289878&g_mp=Cilnb29nbGUubWFwcy5wbGFjZXMudjEuUGxhY2VzLlNlYXJjaE5lYXJieRACGAQgAA"
    },
    {
      "name": "Silver Tray Thai",
      "place_id": "ChIJSebv3FkUkFQRCH3nukT65xE",
      "type": "Thai Restaurant",
      "rating": 4.7,
      "user_ratings_total": 378,
      "location": {
        "latitude": 47.661249999999995,
        "longitude": -122.3336278
      },
      "address": "2101 N 45th St, Seattle",
      "maps_url": "https://maps.google.com/?cid=1290274991365389576&g_mp=Cilnb29nbGUubWFwcy5wbGFjZXMudjEuUGxhY2VzLlNlYXJjaE5lYXJieRACGAQgAA"
    },
    {
      "name": "Smash That Burger Co @Fremont Urban Beer Garden",
      "place_id": "ChIJ9_VMCPMVkFQR0In-1d2tsFs",
      "type": "Restaurant",
      "rating": 4.7,
      "user_ratings_total": 346,
      "location": {
        "latitude": 47.6490614,
        "longitude": -122.3444612
      },
      "address": "1050 N 34th St, Seattle",
      "maps_url": "https://maps.google.com/?cid=6606971821642123728&g_mp=Cilnb29nbGUubWFwcy5wbGFjZXMudjEuUGxhY2VzLlNlYXJjaE5lYXJieRACGAQgAA"
    },
    {
      "name": "The Ice Box Arcade",
      "place_id": "ChIJheeMx7EVkFQRRtA2E2QwsRk",
      "type": "Video Arcade",
      "rating": 4.7,
      "user_ratings_total": 324,
      "location": {
        "latitude": 47.659834499999995,
        "longitude": -122.3647499
      },
      "address": "615 NW Bright St, Seattle",
      "maps_url": "https://maps.google.com/?cid=1851314128203206726&g_mp=Cilnb29nbGUubWFwcy5wbGFjZXMudjEuUGxhY2VzLlNlYXJjaE5lYXJieRACGAQgAA"
    },
    {
      "name": "shawarma prince",
      "place_id": "ChIJ5TcXYSUVkFQRKC-0DH5Wc4s",
      "type": "Restaurant",
      "rating": 4.7,
      "user_ratings_total": 323,
      "location": {
        "latitude": 47.6675003,
        "longitude": -122.3759011
      },
      "address": "5300 15th Ave NW, Seattle",
      "maps_url": "https://maps.google.com/?cid=10048470292972711720&g_mp=Cilnb29nbGUubWFwcy5wbGFjZXMudjEuUGxhY2VzLlNlYXJjaE5lYXJieRACGAQgAA"
    },
    {
      "name": "Sunrise Restaurant",
      "place_id": "ChIJ5VrI76QVkFQRiH7s5HM-kG4",
      "type": "American Restaurant",
      "rating": 4.7,
      "user_ratings_total": 319,
      "location": {
        "latitude": 47.686130399999996,
        "longitude": -122.344731
      },
      "address": "7821 Aurora Ave N, Seattle",
      "maps_url": "https://maps.google.com/?cid=7966936408301272712&g_mp=Cilnb29nbGUubWFwcy5wbGFjZXMudjEuUGxhY2VzLlNlYXJjaE5lYXJieRACGAQgAA"
    },
    {
      "name": "Spice Waala",
      "place_id": "ChIJ3eqhbzYVkFQRXXYxpy6xzUo",
      "type": "Indian Restaurant",
      "rating": 4.7,
      "user_ratings_total": 315,
      "location": {
        "latitude": 47.6696065,
        "longitude": -122.38262499999999
      },
      "address": "2008 NW 56th St, Seattle",
      "maps_url": "https://maps.google.com/?cid=5390159142964000349&g_mp=Cilnb29nbGUubWFwcy5wbGFjZXMudjEuUGxhY2VzLlNlYXJjaE5lYXJieRACGAQgAA"
    },
    {
      "name": "Momi Indian Kitchen",
      "place_id": "ChIJXYWTWFwVkFQRQ-JiP1REkig",
      "type": "Indian Restaurant",
      "rating": 4.7,
      "user_ratings_total": 311,
      "location": {
        "latitude": 47.678489299999995,
        "longitude": -122.3263011
      },
      "address": "6900 East Green Lake Way N Ste. C, Seattle",
      "maps_url": "https://maps.google.com/?cid=2923474236748259907&g_mp=Cilnb29nbGUubWFwcy5wbGFjZXMudjEuUGxhY2VzLlNlYXJjaE5lYXJieRACGAQgAA"
    },
    {
      "name": "The Blue Heron",
      "place_id": "ChIJcd9sFJYVkFQRPOOlDgW1dcQ",
      "type": "Sandwich Shop",
      "rating": 4.7,
      "user_ratings_total": 307,
      "location": {
        "latitude": 47.6559287,
        "longitude": -122.38697259999999
      },
      "address": "4001 Gilman Ave W #27, Seattle",
      "maps_url": "https://maps.google.com/?cid=14156420037034238780&g_mp=Cilnb29nbGUubWFwcy5wbGFjZXMudjEuUGxhY2VzLlNlYXJjaE5lYXJieRACGAQgAA"
    },
    {
      "name": "One million cafe",
      "place_id": "ChIJ2yj3OAEXkFQR_RQlBJ0VyIU",
      "type": "Cafe",
      "rating": 4.7,
      "user_ratings_total": 301,
      "location": {
        "latitude": 47.704871499999996,
        "longitude": -122.35427489999998
      },
      "address": "323 N 105th St Suite b, Seattle",
      "maps_url": "https://maps.google.com/?cid=9639978766510134525&g_mp=Cilnb29nbGUubWFwcy5wbGFjZXMudjEuUGxhY2VzLlNlYXJjaE5lYXJieRACGAQgAA"
    },
    {
      "name": "Red Arrow Coffee",
      "place_id": "ChIJmfmiqmIVkFQRiCVDzxYtBug",
      "type": "Cafe",
      "rating": 4.7,
      "user_ratings_total": 297,
      "location": {
        "latitude": 47.6684427,
        "longitude": -122.36295360000001
      },
      "address": "425 NW Market St, Seattle",
      "maps_url": "https://maps.google.com/?cid=16719100242649359752&g_mp=Cilnb29nbGUubWFwcy5wbGFjZXMudjEuUGxhY2VzLlNlYXJjaE5lYXJieRACGAQgAA"
    },
    {
      "name": "Tacos El Lago",
      "place_id": "ChIJJfveWwAVkFQRoZv7I5qNeD4",
      "type": "Mexican Restaurant",
      "rating": 4.7,
      "user_ratings_total": 279,
      "location": {
        "latitude": 47.65119740000001,
        "longitude": -122.34242529999999
      },
      "address": "3620 Stone Way N, Seattle",
      "maps_url": "https://maps.google.com/?cid=4501503520724982689&g_mp=Cilnb29nbGUubWFwcy5wbGFjZXMudjEuUGxhY2VzLlNlYXJjaE5lYXJieRACGAQgAA"
    },
    {
      "name": "Crawfish Chef Seattle",
      "place_id": "ChIJqTAaxVUVkFQRsyzx4QjgV10",
      "type": "Seafood Restaurant",
      "rating": 4.7,
      "user_ratings_total": 273,
      "location": {
        "latitude": 47.6767027,
        "longitude": -122.3171784
      },
      "address": "1000 NE 66th St, Seattle",
      "maps_url": "https://maps.google.com/?cid=6726090897256164531&g_mp=Cilnb29nbGUubWFwcy5wbGFjZXMudjEuUGxhY2VzLlNlYXJjaE5lYXJieRACGAQgAA"
    },
    {
      "name": "Botteco Brazil",
      "place_id": "ChIJwU6wl_4VkFQRYIHiaKH_au8",
      "type": "Brazilian Restaurant",
      "rating": 4.7,
      "user_ratings_total": 267,
      "location": {
        "latitude": 47.649183699999995,
        "longitude": -122.3568218
      },
      "address": "15 Nickerson St, Seattle",
      "maps_url": "https://maps.google.com/?cid=17251882391310598496&g_mp=Cilnb29nbGUubWFwcy5wbGFjZXMudjEuUGxhY2VzLlNlYXJjaE5lYXJieRACGAQgAA"
    },
    {
      "name": "Fuego Restaurant Lounge Ballard",
      "place_id": "ChIJuTmOOQAVkFQRXm1a9cd2pHw",
      "type": "Restaurant",
      "rating": 4.7,
      "user_ratings_total": 262,
      "location": {
        "latitude": 47.6683708,
        "longitude": -122.38309319999998
      },
      "address": "5425 Russell Ave NW, Seattle",
      "maps_url": "https://maps.google.com/?cid=8981434158070525278&g_mp=Cilnb29nbGUubWFwcy5wbGFjZXMudjEuUGxhY2VzLlNlYXJjaE5lYXJieRACGAQgAA"
    },
    {
      "name": "Über Tavern",
      "place_id": "ChIJ87qcgT0UkFQR1q92QxrI558",
      "type": "Bar",
      "rating": 4.7,
      "user_ratings_total": 253,
      "location": {
        "latitude": 47.6838353,
        "longitude": -122.3447455
      },
      "address": "7517 Aurora Ave N, Seattle",
      "maps_url": "https://maps.google.com/?cid=11522398186777259990&g_mp=Cilnb29nbGUubWFwcy5wbGFjZXMudjEuUGxhY2VzLlNlYXJjaE5lYXJieRACGAQgAA"
    },
    {
      "name": "Italio Pizza & Pasta",
      "place_id": "ChIJhXrC2x4VkFQRXOa9IBFWDag",
      "type": "Italian Restaurant",
      "rating": 4.7,
      "user_ratings_total": 242,
      "location": {
        "latitude": 47.6903889,
        "longitude": -122.3610786
      },
      "address": "305 NW 85th St, Seattle",
      "maps_url": "https://maps.google.com/?cid=12109429604632880732&g_mp=Cilnb29nbGUubWFwcy5wbGFjZXMudjEuUGxhY2VzLlNlYXJjaE5lYXJieRACGAQgAA"
    },
    {
      "name": "Figurehead Brewing Magnolia",
      "place_id": "ChIJZ7Rxkb0VkFQRkVsSwUWurbo",
      "type": "Brewery",
      "rating": 4.7,
      "user_ratings_total": 234,
      "location": {
        "latitude": 47.656223,
        "longitude": -122.383728
      },
      "address": "4001 21st Ave W unit b, Seattle",
      "maps_url": "https://maps.google.com/?cid=13451599276640721809&g_mp=Cilnb29nbGUubWFwcy5wbGFjZXMudjEuUGxhY2VzLlNlYXJjaE5lYXJieRACGAQgAA"
    },
    {
      "name": "Alebrijes Kitchen",
      "place_id": "ChIJg2T82XYXkFQRzn0XOHs-jac",
      "type": "Mexican Restaurant",
      "rating": 4.7,
      "user_ratings_total": 231,
      "location": {
        "latitude": 47.690780499999995,
        "longitude": -122.3674334
      },
      "address": "850 NW 85th St, Seattle",
      "maps_url": "https://maps.google.com/?cid=12073374874993130958&g_mp=Cilnb29nbGUubWFwcy5wbGFjZXMudjEuUGxhY2VzLlNlYXJjaE5lYXJieRACGAQgAA"
    },
    {
      "name": "Cafe Bambino",
      "place_id": "ChIJYwGCVDEUkFQR7efYDK9l4DU",
      "type": "Cafe",
      "rating": 4.7,
      "user_ratings_total": 228,
      "location": {
        "latitude": 47.6758958,
        "longitude": -122.36218179999997
      },
      "address": "405 NW 65th St, Seattle",
      "maps_url": "https://maps.google.com/?cid=3882214681302591469&g_mp=Cilnb29nbGUubWFwcy5wbGFjZXMudjEuUGxhY2VzLlNlYXJjaE5lYXJieRACGAQgAA"
    },
    {
      "name": "The Dray",
      "place_id": "ChIJX1xU6jMUkFQRJri4uN7vU6g",
      "type": "Pub",
      "rating": 4.7,
      "user_ratings_total": 221,
      "location": {
        "latitude": 47.6760618,
        "longitude": -122.3650341
      },
      "address": "708 NW 65th St, Seattle",
      "maps_url": "https://maps.google.com/?cid=12129301961299769382&g_mp=Cilnb29nbGUubWFwcy5wbGFjZXMudjEuUGxhY2VzLlNlYXJjaE5lYXJieRACGAQgAA"
    },
    {
      "name": "Ballard Beer Box",
      "place_id": "ChIJnc1GRb0VkFQRrL0_1vaF0U4",
      "type": "Pizza Restaurant",
      "rating": 4.7,
      "user_ratings_total": 185,
      "location": {
        "latitude": 47.6689406,
        "longitude": -122.38966990000002
      },
      "address": "2446 NW Market St, Seattle",
      "maps_url": "https://maps.google.com/?cid=5679467900293856684&g_mp=Cilnb29nbGUubWFwcy5wbGFjZXMudjEuUGxhY2VzLlNlYXJjaE5lYXJieRACGAQgAA"
    },
    {
      "name": "Cardoon",
      "place_id": "ChIJ-eBZK3UVkFQRSe2GwFc-kw8",
      "type": "Cafe",
      "rating": 4.7,
      "user_ratings_total": 172,
      "location": {
        "latitude": 47.6685416,
        "longitude": -122.38874059999999
      },
      "address": "2423 NW Market St, Seattle",
      "maps_url": "https://maps.google.com/?cid=1122309278758530377&g_mp=Cilnb29nbGUubWFwcy5wbGFjZXMudjEuUGxhY2VzLlNlYXJjaE5lYXJieRACGAQgAA"
    },
    {
      "name": "Mr. Gyros",
      "place_id": "ChIJVRP-HwAVkFQRwm4UOp92lhc",
      "type": "Gyro Restaurant",
      "rating": 4.7,
      "user_ratings_total": 161,
      "location": {
        "latitude": 47.6917531,
        "longitude": -122.35420819999999
      },
      "address": "8535 Phinney Ave N, Seattle",
      "maps_url": "https://maps.google.com/?cid=1699676335625236162&g_mp=Cilnb29nbGUubWFwcy5wbGFjZXMudjEuUGxhY2VzLlNlYXJjaE5lYXJieRACGAQgAA"
    },
    {
      "name": "Fishermen’s Green Market & Deli",
      "place_id": "ChIJCXH8E70VkFQR8wFzE2tNv3k",
      "type": "Deli",
      "rating": 4.7,
      "user_ratings_total": 155,
      "location": {
        "latitude": 47.655525999999995,
        "longitude": -122.380372
      },
      "address": "1900 W Nickerson St c114, Seattle",
      "maps_url": "https://maps.google.com/?cid=8772815721424159219&g_mp=Cilnb29nbGUubWFwcy5wbGFjZXMudjEuUGxhY2VzLlNlYXJjaE5lYXJieRACGAQgAA"
    },
    {
      "name": "Always Thai Restaurant",
      "place_id": "ChIJV4Vv8lwVkFQRZHb-BexeN9o",
      "type": "Thai Restaurant",
      "rating": 4.7,
      "user_ratings_total": 151,
      "location": {
        "latitude": 47.6845505,
        "longitude": -122.34485850000002
      },
      "address": "7617 Aurora Ave N, Seattle",
      "maps_url": "https://maps.google.com/?cid=15724140991793231460&g_mp=Cilnb29nbGUubWFwcy5wbGFjZXMudjEuUGxhY2VzLlNlYXJjaE5lYXJieRACGAQgAA"
    },
    {
      "name": "Yopparai!",
      "place_id": "ChIJfccciz4XkFQRebvH_FsKT7M",
      "type": "Sushi Restaurant",
      "rating": 4.7,
      "user_ratings_total": 129,
      "location": {
        "latitude": 47.704414,
        "longitude": -122.35599750000002
      },
      "address": "10406 Holman Rd N, Seattle",
      "maps_url": "https://maps.google.com/?cid=12920557246148492153&g_mp=Cilnb29nbGUubWFwcy5wbGFjZXMudjEuUGxhY2VzLlNlYXJjaE5lYXJieRACGAQgAA"
    },
    {
      "name": "FORTUNA",
      "place_id": "ChIJ10NafUMVkFQRlLME8nnnGBA",
      "type": "Sandwich Shop",
      "rating": 4.7,
      "user_ratings_total": 125,
      "location": {
        "latitude": 47.684590899999996,
        "longitude": -122.3556065
      },
      "address": "7619 Greenwood Ave N BUILDING 1, Seattle",
      "maps_url": "https://maps.google.com/?cid=1159931414985356180&g_mp=Cilnb29nbGUubWFwcy5wbGFjZXMudjEuUGxhY2VzLlNlYXJjaE5lYXJieRACGAQgAA"
    },
    {
      "name": "juisala",
      "place_id": "ChIJ7XfjRNoVkFQRszaUCJqSCoo",
      "type": "Juice Shop",
      "rating": 4.7,
      "user_ratings_total": 108,
      "location": {
        "latitude": 47.660512499999996,
        "longitude": -122.33633699999999
      },
      "address": "4405 Wallingford Ave N, Seattle",
      "maps_url": "https://maps.google.com/?cid=9946923917267711667&g_mp=Cilnb29nbGUubWFwcy5wbGFjZXMudjEuUGxhY2VzLlNlYXJjaE5lYXJieRACGAQgAA"
    },
    {
      "name": "A Lamb's Quandary",
      "place_id": "ChIJ-9uXRIYVkFQRbmjq-G4TYHM",
      "type": "Restaurant",
      "rating": 4.7,
      "user_ratings_total": 107,
      "location": {
        "latitude": 47.679698099999996,
        "longitude": -122.374512
      },
      "address": "1418 NW 70th St, Seattle",
      "maps_url": "https://maps.google.com/?cid=8313666279469377646&g_mp=Cilnb29nbGUubWFwcy5wbGFjZXMudjEuUGxhY2VzLlNlYXJjaE5lYXJieRACGAQgAA"
    },
    {
      "name": "The Wayland Mill",
      "place_id": "ChIJSXEXWUcVkFQR5vsSICVH2l0",
      "type": "Restaurant",
      "rating": 4.7,
      "user_ratings_total": 107,
      "location": {
        "latitude": 47.6545619,
        "longitude": -122.3254406
      },
      "address": "3800 Latona Ave NE Suite 112, Seattle",
      "maps_url": "https://maps.google.com/?cid=6762796015227698150&g_mp=Cilnb29nbGUubWFwcy5wbGFjZXMudjEuUGxhY2VzLlNlYXJjaE5lYXJieRACGAQgAA"
    },
    {
      "name": "Hot Slice Pizza - Pizza, Pasta & Gelato",
      "place_id": "ChIJQ9JJi_wVkFQRsVWKUEYhf9I",
      "type": "Pizza Restaurant",
      "rating": 4.7,
      "user_ratings_total": 103,
      "location": {
        "latitude": 47.648469399999996,
        "longitude": -122.35590180000001
      },
      "address": "41 Dravus St Unit S10, Seattle",
      "maps_url": "https://maps.google.com/?cid=15167878655889790385&g_mp=Cilnb29nbGUubWFwcy5wbGFjZXMudjEuUGxhY2VzLlNlYXJjaE5lYXJieRACGAQgAA"
    },
    {
      "name": "Nua Thai Restaurant and Bar",
      "place_id": "ChIJdxMpEEAVkFQR-pxNTEDmIq0",
      "type": "Thai Restaurant",
      "rating": 4.7,
      "user_ratings_total": 94,
      "location": {
        "latitude": 47.6683163,
        "longitude": -122.37867039999999
      },
      "address": "5410 17th Ave NW, Seattle",
      "maps_url": "https://maps.google.com/?cid=12475787081602145530&g_mp=Cilnb29nbGUubWFwcy5wbGFjZXMudjEuUGxhY2VzLlNlYXJjaE5lYXJieRACGAQgAA"
    },
    {
      "name": "Taqueria La Sabrosita",
      "place_id": "ChIJd0CNVgAVkFQRFMUstg1kVK0",
      "type": "Taco Restaurant",
      "rating": 4.7,
      "user_ratings_total": 79,
      "location": {
        "latitude": 47.6392344,
        "longitude": -122.39995739999999
      },
      "address": "Parking lot, 3301 W McGraw St, Seattle",
      "maps_url": "https://maps.google.com/?cid=12489717676658967828&g_mp=Cilnb29nbGUubWFwcy5wbGFjZXMudjEuUGxhY2VzLlNlYXJjaE5lYXJieRACGAQgAA"
    },
    {
      "name": "Vacil Salvadoreno Taco Loco",
      "place_id": "ChIJ0YsdpqUVkFQR_RvgmTu32bc",
      "type": "Taco Restaurant",
      "rating": 4.7,
      "user_ratings_total": 75,
      "location": {
        "latitude": 47.6707752,
        "longitude": -122.37653600000002
      },
      "address": "5715 15th Ave NW, Seattle",
      "maps_url": "https://maps.google.com/?cid=13247821245499579389&g_mp=Cilnb29nbGUubWFwcy5wbGFjZXMudjEuUGxhY2VzLlNlYXJjaE5lYXJieRACGAQgAA"
    },
    {
      "name": "The Kite Cafe",
      "place_id": "ChIJT0z-lJIXkFQRJ6tezVxJge4",
      "type": "Restaurant",
      "rating": 4.7,
      "user_ratings_total": 70,
      "location": {
        "latitude": 47.691773399999995,
        "longitude": -122.40396999999999
      },
      "address": "8498 Seaview Pl NW, Seattle",
      "maps_url": "https://maps.google.com/?cid=17186098315953875751&g_mp=Cilnb29nbGUubWFwcy5wbGFjZXMudjEuUGxhY2VzLlNlYXJjaE5lYXJieRACGAQgAA"
    },
    {
      "name": "Taste & Tell Lounge",
      "place_id": "ChIJZ8AhX9cVkFQRHARIOA7Rz3c",
      "type": "Cafe",
      "rating": 4.7,
      "user_ratings_total": 55,
      "location": {
        "latitude": 47.6729225,
        "longitude": -122.3547534
      },
      "address": "6015 Phinney Ave N Cu1, Seattle",
      "maps_url": "https://maps.google.com/?cid=8633348869696521244&g_mp=Cilnb29nbGUubWFwcy5wbGFjZXMudjEuUGxhY2VzLlNlYXJjaE5lYXJieRACGAQgAA"
    },
    {
      "name": "Tacos",
      "place_id": "ChIJ-7vKXgAXkFQRPd7ES4sf9y4",
      "type": "Mexican Restaurant",
      "rating": 4.7,
      "user_ratings_total": 47,
      "location": {
        "latitude": 47.7045986,
        "longitude": -122.3450747
      },
      "address": "10409 Aurora Ave N, Seattle",
      "maps_url": "https://maps.google.com/?cid=3384208328124325437&g_mp=Cilnb29nbGUubWFwcy5wbGFjZXMudjEuUGxhY2VzLlNlYXJjaE5lYXJieRACGAQgAA"
    },
    {
      "name": "Theo's Gyros",
      "place_id": "ChIJ-yLnAAAVkFQRbtSnnXlccY8",
      "type": "Restaurant",
      "rating": 4.7,
      "user_ratings_total": 37,
      "location": {
        "latitude": 47.662735999999995,
        "longitude": -122.341961
      },
      "address": "4615 Stone Way N, Seattle",
      "maps_url": "https://maps.google.com/?cid=10336144297197818990&g_mp=Cilnb29nbGUubWFwcy5wbGFjZXMudjEuUGxhY2VzLlNlYXJjaE5lYXJieRACGAQgAA"
    },
    {
      "name": "Aslan Brewing Tangletown",
      "place_id": "ChIJ2SdmGyEVkFQRizm-dOF-XeY",
      "type": "Brewery",
      "rating": 4.7,
      "user_ratings_total": 35,
      "location": {
        "latitude": 47.668982299999996,
        "longitude": -122.33152779999999
      },
      "address": "2253 N 56th St Unit B, Seattle",
      "maps_url": "https://maps.google.com/?cid=16599563308348881291&g_mp=Cilnb29nbGUubWFwcy5wbGFjZXMudjEuUGxhY2VzLlNlYXJjaE5lYXJieRACGAQgAA"
    },
    {
      "name": "Khao Soi Na Chiang Rai",
      "place_id": "ChIJK-1zBwAVkFQRKh1dc-1ip8E",
      "type": "Thai Restaurant",
      "rating": 4.7,
      "user_ratings_total": 30,
      "location": {
        "latitude": 47.6761413,
        "longitude": -122.36269279999999
      },
      "address": "500 NW 65th St, Seattle",
      "maps_url": "https://maps.google.com/?cid=13954230742413024554&g_mp=Cilnb29nbGUubWFwcy5wbGFjZXMudjEuUGxhY2VzLlNlYXJjaE5lYXJieRACGAQgAA"
    },
    {
      "name": "Single Hill Commons",
      "place_id": "ChIJ-_6nZAAVkFQRffhLSBPnGeE",
      "type": "Bar",
      "rating": 4.7,
      "user_ratings_total": 27,
      "location": {
        "latitude": 47.6754513,
        "longitude": -122.38729040000001
      },
      "address": "6400 24th Ave NW, Seattle",
      "maps_url": "https://maps.google.com/?cid=16220249602954885245&g_mp=Cilnb29nbGUubWFwcy5wbGFjZXMudjEuUGxhY2VzLlNlYXJjaE5lYXJieRACGAQgAA"
    },
    {
      "name": "Emerald City Smoothie- Green Lake",
      "place_id": "ChIJuwlRqtQVkFQRwcrY_G5vQZQ",
      "type": "Restaurant",
      "rating": 4.7,
      "user_ratings_total": 27,
      "location": {
        "latitude": 47.6811656,
        "longitude": -122.32547749999999
      },
      "address": "7301 Woodlawn Ave NE, Seattle",
      "maps_url": "https://maps.google.com/?cid=10682942313578678977&g_mp=Cilnb29nbGUubWFwcy5wbGFjZXMudjEuUGxhY2VzLlNlYXJjaE5lYXJieRACGAQgAA"
    },
    {
      "name": "Dick's Drive-In",
      "place_id": "ChIJd5TY51gUkFQRU_h3DzLnCi4",
      "type": "Hamburger Restaurant",
      "rating": 4.6,
      "user_ratings_total": 9440,
      "location": {
        "latitude": 47.6610617,
        "longitude": -122.32777730000001
      },
      "address": "111 NE 45th St, Seattle",
      "maps_url": "https://maps.google.com/?cid=3317718277705693267&g_mp=Cilnb29nbGUubWFwcy5wbGFjZXMudjEuUGxhY2VzLlNlYXJjaE5lYXJieRACGAQgAA"
    },
    {
      "name": "Dick's Drive-In",
      "place_id": "ChIJmRVAxpsWkFQR4gW_YF-L7Wo",
      "type": "Hamburger Restaurant",
      "rating": 4.6,
      "user_ratings_total": 4101,
      "location": {
        "latitude": 47.696401599999994,
        "longitude": -122.3716869
      },
      "address": "9208 Holman Rd NW, Seattle",
      "maps_url": "https://maps.google.com/?cid=7704967779262072290&g_mp=Cilnb29nbGUubWFwcy5wbGFjZXMudjEuUGxhY2VzLlNlYXJjaE5lYXJieRACGAQgAA"
    },
    {
      "name": "Wayward Vegan",
      "place_id": "ChIJi5Mg6GMUkFQRz_FTACxLeJs",
      "type": "Vegan Restaurant",
      "rating": 4.6,
      "user_ratings_total": 3190,
      "location": {
        "latitude": 47.675698,
        "longitude": -122.31987129999999
      },
      "address": "801 NE 65th St suite c, Seattle",
      "maps_url": "https://maps.google.com/?cid=11202786725440254415&g_mp=Cilnb29nbGUubWFwcy5wbGFjZXMudjEuUGxhY2VzLlNlYXJjaE5lYXJieRACGAQgAA"
    },
    {
      "name": "Canlis",
      "place_id": "ChIJRXCfNwUVkFQRxraD8U-dANE",
      "type": "American Restaurant",
      "rating": 4.6,
      "user_ratings_total": 2759,
      "location": {
        "latitude": 47.6430933,
        "longitude": -122.34675349999999
      },
      "address": "Parking lot, 2576 Aurora Ave N, Seattle",
      "maps_url": "https://maps.google.com/?cid=15060210120606856902&g_mp=Cilnb29nbGUubWFwcy5wbGFjZXMudjEuUGxhY2VzLlNlYXJjaE5lYXJieRACGAQgAA"
    },
    {
      "name": "Red Mill Burgers",
      "place_id": "ChIJM1Pt-TkUkFQR9JLlQW8Lh4U",
      "type": "Hamburger Restaurant",
      "rating": 4.6,
      "user_ratings_total": 2525,
      "location": {
        "latitude": 47.6779382,
        "longitude": -122.35471410000001
      },
      "address": "312 N 67th St, Seattle",
      "maps_url": "https://maps.google.com/?cid=9621671701375193844&g_mp=Cilnb29nbGUubWFwcy5wbGFjZXMudjEuUGxhY2VzLlNlYXJjaE5lYXJieRACGAQgAA"
    },
    {
      "name": "Kona Kitchen - Seattle",
      "place_id": "ChIJS9EgJgkUkFQRf06djJkWzn4",
      "type": "Hawaiian Restaurant",
      "rating": 4.6,
      "user_ratings_total": 2177,
      "location": {
        "latitude": 47.6906269,
        "longitude": -122.32335640000001
      },
      "address": "8501 5th Ave NE, Seattle",
      "maps_url": "https://maps.google.com/?cid=9137265542726241919&g_mp=Cilnb29nbGUubWFwcy5wbGFjZXMudjEuUGxhY2VzLlNlYXJjaE5lYXJieRACGAQgAA"
    },
    {
      "name": "Brouwer's Cafe",
      "place_id": "ChIJWUTF0akVkFQRGQnC3p7M4DA",
      "type": "Belgian Restaurant",
      "rating": 4.6,
      "user_ratings_total": 2118,
      "location": {
        "latitude": 47.6516181,
        "longitude": -122.3542407
      },
      "address": "400 N 35th St, Seattle",
      "maps_url": "https://maps.google.com/?cid=3522039891317885209&g_mp=Cilnb29nbGUubWFwcy5wbGFjZXMudjEuUGxhY2VzLlNlYXJjaE5lYXJieRACGAQgAA"
    },
    {
      "name": "Gorditos Healthy Mexican",
      "place_id": "ChIJlcbBuyEUkFQReKxVnxWZmQE",
      "type": "Mexican Restaurant",
      "rating": 4.6,
      "user_ratings_total": 1938,
      "location": {
        "latitude": 47.6904018,
        "longitude": -122.35596269999999
      },
      "address": "213 N 85th St, Seattle",
      "maps_url": "https://maps.google.com/?cid=115291583621213304&g_mp=Cilnb29nbGUubWFwcy5wbGFjZXMudjEuUGxhY2VzLlNlYXJjaE5lYXJieRACGAQgAA"
    },
    {
      "name": "La Cabaña Seattle",
      "place_id": "ChIJn92dk68WkFQRQ5pH5dd8vE8",
      "type": "Restaurant",
      "rating": 4.6,
      "user_ratings_total": 1849,
      "location": {
        "latitude": 47.705207099999996,
        "longitude": -122.3508456
      },
      "address": "606 N 105th St, Seattle",
      "maps_url": "https://maps.google.com/?cid=5745604491324398147&g_mp=Cilnb29nbGUubWFwcy5wbGFjZXMudjEuUGxhY2VzLlNlYXJjaE5lYXJieRACGAQgAA"
    },
    {
      "name": "Ray's Cafe",
      "place_id": "ChIJsVjtBN4VkFQRHypmSrxYxFE",
      "type": "Seafood Restaurant",
      "rating": 4.6,
      "user_ratings_total": 1778,
      "location": {
        "latitude": 47.673379,
        "longitude": -122.407666
      },
      "address": "6049 Seaview Ave NW, Seattle",
      "maps_url": "https://maps.google.com/?cid=5891931778232756767&g_mp=Cilnb29nbGUubWFwcy5wbGFjZXMudjEuUGxhY2VzLlNlYXJjaE5lYXJieRACGAQgAA"
    },
    {
      "name": "Ballard Coffee Co.",
      "place_id": "ChIJxwqDeNYVkFQRixxJ_65GX1M",
      "type": "Cafe",
      "rating": 4.6,
      "user_ratings_total": 1575,
      "location": {
        "latitude": 47.671855199999996,
        "longitude": -122.37647960000001
      },
      "address": "5905 15th Ave NW, Seattle",
      "maps_url": "https://maps.google.com/?cid=6007598145356766347&g_mp=Cilnb29nbGUubWFwcy5wbGFjZXMudjEuUGxhY2VzLlNlYXJjaE5lYXJieRACGAQgAA"
    },
    {
      "name": "FlintCreek Cattle Co",
      "place_id": "ChIJPyXoviEUkFQRkIk-z2C6wxc",
      "type": "American Restaurant",
      "rating": 4.6,
      "user_ratings_total": 1540,
      "location": {
        "latitude": 47.690465499999995,
        "longitude": -122.3555423
      },
      "address": "8421 Greenwood Ave N, Seattle",
      "maps_url": "https://maps.google.com/?cid=1712417208287529360&g_mp=Cilnb29nbGUubWFwcy5wbGFjZXMudjEuUGxhY2VzLlNlYXJjaE5lYXJieRACGAQgAA"
    },
    {
      "name": "Arashi Ramen",
      "place_id": "ChIJZ-fkGMYVkFQRN071FIifV3c",
      "type": "Ramen Restaurant",
      "rating": 4.6,
      "user_ratings_total": 1310,
      "location": {
        "latitude": 47.6681865,
        "longitude": -122.3823014
      },
      "address": "5401 20th Ave NW, Seattle",
      "maps_url": "https://maps.google.com/?cid=8599517420303240759&g_mp=Cilnb29nbGUubWFwcy5wbGFjZXMudjEuUGxhY2VzLlNlYXJjaE5lYXJieRACGAQgAA"
    },
    {
      "name": "Fremont Bowl",
      "place_id": "ChIJgV02SFMUkFQR5t7rmPBc6gI",
      "type": "Japanese Restaurant",
      "rating": 4.6,
      "user_ratings_total": 1235,
      "location": {
        "latitude": 47.659036099999994,
        "longitude": -122.34982849999999
      },
      "address": "4258 Fremont Ave N Ste #4262, Seattle",
      "maps_url": "https://maps.google.com/?cid=210082521053650662&g_mp=Cilnb29nbGUubWFwcy5wbGFjZXMudjEuUGxhY2VzLlNlYXJjaE5lYXJieRACGAQgAA"
    },
    {
      "name": "Pete's Eggnest",
      "place_id": "ChIJ2c0RYyMUkFQRRAHJsGe6vV4",
      "type": "Breakfast Restaurant",
      "rating": 4.6,
      "user_ratings_total": 1194,
      "location": {
        "latitude": 47.685300299999994,
        "longitude": -122.3554994
      },
      "address": "7717 Greenwood Ave N, Seattle",
      "maps_url": "https://maps.google.com/?cid=6826817564673900868&g_mp=Cilnb29nbGUubWFwcy5wbGFjZXMudjEuUGxhY2VzLlNlYXJjaE5lYXJieRACGAQgAA"
    },
    {
      "name": "Murphy's Pub",
      "place_id": "ChIJN-SR51kUkFQRt0YwwNvBfdM",
      "type": "Irish Pub",
      "rating": 4.6,
      "user_ratings_total": 1147,
      "location": {
        "latitude": 47.661589799999994,
        "longitude": -122.33395739999999
      },
      "address": "1928 N 45th St, Seattle",
      "maps_url": "https://maps.google.com/?cid=15239549863658014391&g_mp=Cilnb29nbGUubWFwcy5wbGFjZXMudjEuUGxhY2VzLlNlYXJjaE5lYXJieRACGAQgAA"
    },
    {
      "name": "Macleod’s Scottish Pub",
      "place_id": "ChIJ7SUJpccVkFQRVA0QQmFXF0o",
      "type": "Fish & Chips Restaurant",
      "rating": 4.6,
      "user_ratings_total": 990,
      "location": {
        "latitude": 47.6658493,
        "longitude": -122.3823074
      },
      "address": "5200 Ballard Ave NW, Seattle",
      "maps_url": "https://maps.google.com/?cid=5338831958502804820&g_mp=Cilnb29nbGUubWFwcy5wbGFjZXMudjEuUGxhY2VzLlNlYXJjaE5lYXJieRACGAQgAA"
    },
    {
      "name": "Mighty-O Donuts- Greenlake",
      "place_id": "ChIJO2vSTUMUkFQR7x7xkPYRHd4",
      "type": "Donut Shop",
      "rating": 4.6,
      "user_ratings_total": 860,
      "location": {
        "latitude": 47.668811899999994,
        "longitude": -122.3332585
      },
      "address": "2110 N 55th St, Seattle",
      "maps_url": "https://maps.google.com/?cid=16004968401435959023&g_mp=Cilnb29nbGUubWFwcy5wbGFjZXMudjEuUGxhY2VzLlNlYXJjaE5lYXJieRACGAQgAA"
    },
    {
      "name": "Bay Cafe",
      "place_id": "ChIJa3tVF70VkFQRY0J98ZlVQ_g",
      "type": "American Restaurant",
      "rating": 4.6,
      "user_ratings_total": 833,
      "location": {
        "latitude": 47.6556946,
        "longitude": -122.38039599999999
      },
      "address": "1900 W Nickerson St, Seattle",
      "maps_url": "https://maps.google.com/?cid=17889236264515617379&g_mp=Cilnb29nbGUubWFwcy5wbGFjZXMudjEuUGxhY2VzLlNlYXJjaE5lYXJieRACGAQgAA"
    },
    {
      "name": "Noi Thai Cuisine",
      "place_id": "ChIJVbmLMhQVkFQRnsE4EL42DzM",
      "type": "Thai Restaurant",
      "rating": 4.6,
      "user_ratings_total": 808,
      "location": {
        "latitude": 47.685755,
        "longitude": -122.33697439999999
      },
      "address": "7900 East Green Lake Dr N, Seattle",
      "maps_url": "https://maps.google.com/?cid=3679219610528825758&g_mp=Cilnb29nbGUubWFwcy5wbGFjZXMudjEuUGxhY2VzLlNlYXJjaE5lYXJieRACGAQgAA"
    },
    {
      "name": "Staple & Fancy",
      "place_id": "ChIJf04_YbgVkFQRG7dhFBDuV9I",
      "type": "Italian Restaurant",
      "rating": 4.6,
      "user_ratings_total": 784,
      "location": {
        "latitude": 47.6635517,
        "longitude": -122.3800569
      },
      "address": "4739 Ballard Ave NW, Seattle",
      "maps_url": "https://maps.google.com/?cid=15156844823767529243&g_mp=Cilnb29nbGUubWFwcy5wbGFjZXMudjEuUGxhY2VzLlNlYXJjaE5lYXJieRACGAQgAA"
    },
    {
      "name": "Petit Pierre Bakery",
      "place_id": "ChIJe5QnEjoUkFQRAWdfY8qVg1w",
      "type": "Bakery",
      "rating": 4.6,
      "user_ratings_total": 783,
      "location": {
        "latitude": 47.6790881,
        "longitude": -122.35555219999999
      },
      "address": "6801 Greenwood Ave N #113a, Seattle",
      "maps_url": "https://maps.google.com/?cid=6666336569921595137&g_mp=Cilnb29nbGUubWFwcy5wbGFjZXMudjEuUGxhY2VzLlNlYXJjaE5lYXJieRACGAQgAA"
    },
    {
      "name": "Cookie's Country Chicken",
      "place_id": "ChIJU-rJ2NRrkFQR6ZDBlYGygCY",
      "type": "Chicken Restaurant",
      "rating": 4.6,
      "user_ratings_total": 773,
      "location": {
        "latitude": 47.66283,
        "longitude": -122.36912450000001
      },
      "address": "907 NW Ballard Way #100, Seattle",
      "maps_url": "https://maps.google.com/?cid=2774413640093241577&g_mp=Cilnb29nbGUubWFwcy5wbGFjZXMudjEuUGxhY2VzLlNlYXJjaE5lYXJieRACGAQgAA"
    },
    {
      "name": "The Sushi Samurai",
      "place_id": "ChIJeSbtNxMVkFQRF9gc-qhFSXQ",
      "type": "Vegan Restaurant",
      "rating": 4.6,
      "user_ratings_total": 739,
      "location": {
        "latitude": 47.6352774,
        "longitude": -122.35713299999999
      },
      "address": "1817 Queen Anne Ave N, Seattle",
      "maps_url": "https://maps.google.com/?cid=8379305173752535063&g_mp=Cilnb29nbGUubWFwcy5wbGFjZXMudjEuUGxhY2VzLlNlYXJjaE5lYXJieRACGAQgAA"
    },
    {
      "name": "Sunlight Cafe",
      "place_id": "ChIJaSSRu28UkFQROOMyoI_wAJ4",
      "type": "Vegetarian Restaurant",
      "rating": 4.6,
      "user_ratings_total": 725,
      "location": {
        "latitude": 47.675197399999995,
        "longitude": -122.3184099
      },
      "address": "6404 9th Ave NE Suite 100, Seattle",
      "maps_url": "https://maps.google.com/?cid=11385364357651292984&g_mp=Cilnb29nbGUubWFwcy5wbGFjZXMudjEuUGxhY2VzLlNlYXJjaE5lYXJieRACGAQgAA"
    },
    {
      "name": "Dreamland Bar & Diner",
      "place_id": "ChIJe3dzpq8VkFQRGBb1awHGxVg",
      "type": "Restaurant",
      "rating": 4.6,
      "user_ratings_total": 722,
      "location": {
        "latitude": 47.6501148,
        "longitude": -122.35162830000002
      },
      "address": "3401 Evanston Ave N, Seattle",
      "maps_url": "https://maps.google.com/?cid=6396736555158148632&g_mp=Cilnb29nbGUubWFwcy5wbGFjZXMudjEuUGxhY2VzLlNlYXJjaE5lYXJieRACGAQgAA"
    },
    {
      "name": "Wild Mountain Cafe",
      "place_id": "ChIJGYRT54IWkFQRBMisgvsgrAk",
      "type": "Cafe",
      "rating": 4.6,
      "user_ratings_total": 710,
      "location": {
        "latitude": 47.690838899999996,
        "longitude": -122.37454439999999
      },
      "address": "1408 NW 85th St, Seattle",
      "maps_url": "https://maps.google.com/?cid=696968306936825860&g_mp=Cilnb29nbGUubWFwcy5wbGFjZXMudjEuUGxhY2VzLlNlYXJjaE5lYXJieRACGAQgAA"
    },
    {
      "name": "A la Mode Pies Phinney Ridge",
      "place_id": "ChIJZ5L-ljQVkFQREbxRlfmBmS0",
      "type": "Bakery",
      "rating": 4.6,
      "user_ratings_total": 702,
      "location": {
        "latitude": 47.671754,
        "longitude": -122.35460540000001
      },
      "address": "5821 Phinney Ave N, Seattle",
      "maps_url": "https://maps.google.com/?cid=3285800312095489041&g_mp=Cilnb29nbGUubWFwcy5wbGFjZXMudjEuUGxhY2VzLlNlYXJjaE5lYXJieRACGAQgAA"
    },
    {
      "name": "Gyro Time Restaurant",
      "place_id": "ChIJVVX6JKUWkFQR9O35k2Y-xjM",
      "type": "Mediterranean Restaurant",
      "rating": 4.6,
      "user_ratings_total": 701,
      "location": {
        "latitude": 47.7044973,
        "longitude": -122.3550317
      },
      "address": "10400 Greenwood Ave N, Seattle",
      "maps_url": "https://maps.google.com/?cid=3730737951613251060&g_mp=Cilnb29nbGUubWFwcy5wbGFjZXMudjEuUGxhY2VzLlNlYXJjaE5lYXJieRACGAQgAA"
    },
    {
      "name": "Mykonos Greek Grill",
      "place_id": "ChIJx4cDIm0UkFQRrdd2HgOQQxE",
      "type": "Greek Restaurant",
      "rating": 4.6,
      "user_ratings_total": 664,
      "location": {
        "latitude": 47.680505,
        "longitude": -122.32532369999998
      },
      "address": "310 NE 72nd St, Seattle",
      "maps_url": "https://maps.google.com/?cid=1243996265154795437&g_mp=Cilnb29nbGUubWFwcy5wbGFjZXMudjEuUGxhY2VzLlNlYXJjaE5lYXJieRACGAQgAA"
    },
    {
      "name": "The Dish Cafe",
      "place_id": "ChIJYRX7r7EVkFQRT_D4B0oLUag",
      "type": "Restaurant",
      "rating": 4.6,
      "user_ratings_total": 646,
      "location": {
        "latitude": 47.6603298,
        "longitude": -122.36572
      },
      "address": "4358 NW Leary Wy, Seattle",
      "maps_url": "https://maps.google.com/?cid=12128487684074696783&g_mp=Cilnb29nbGUubWFwcy5wbGFjZXMudjEuUGxhY2VzLlNlYXJjaE5lYXJieRACGAQgAA"
    },
    {
      "name": "Malena's Taco Shop",
      "place_id": "ChIJRZiyPHMVkFQRo5_RKekGaPc",
      "type": "Mexican Restaurant",
      "rating": 4.6,
      "user_ratings_total": 645,
      "location": {
        "latitude": 47.639699799999995,
        "longitude": -122.36598000000001
      },
      "address": "620 W McGraw St, Seattle",
      "maps_url": "https://maps.google.com/?cid=17827506723444858787&g_mp=Cilnb29nbGUubWFwcy5wbGFjZXMudjEuUGxhY2VzLlNlYXJjaE5lYXJieRACGAQgAA"
    },
    {
      "name": "Harvest Beat",
      "place_id": "ChIJE1sHOFcUkFQRb3P3yY8sMfQ",
      "type": "Vegan Restaurant",
      "rating": 4.6,
      "user_ratings_total": 643,
      "location": {
        "latitude": 47.66128,
        "longitude": -122.3367769
      },
      "address": "1711 N 45th St, Seattle",
      "maps_url": "https://maps.google.com/?cid=17595894215193621359&g_mp=Cilnb29nbGUubWFwcy5wbGFjZXMudjEuUGxhY2VzLlNlYXJjaE5lYXJieRACGAQgAA"
    },
    {
      "name": "Smoking Monkey Pizza",
      "place_id": "ChIJz1uTOioVkFQRgnqTqsslHBI",
      "type": "Pizza Restaurant",
      "rating": 4.6,
      "user_ratings_total": 616,
      "location": {
        "latitude": 47.6391797,
        "longitude": -122.3976261
      },
      "address": "3111 W McGraw St UNIT 103, Seattle",
      "maps_url": "https://maps.google.com/?cid=1304959548700981890&g_mp=Cilnb29nbGUubWFwcy5wbGFjZXMudjEuUGxhY2VzLlNlYXJjaE5lYXJieRACGAQgAA"
    },
    {
      "name": "Kabul Afghan Cuisine",
      "place_id": "ChIJKwojslkUkFQRtra1cUmm3pw",
      "type": "Afghan restaurant",
      "rating": 4.6,
      "user_ratings_total": 613,
      "location": {
        "latitude": 47.661187,
        "longitude": -122.33115699999999
      },
      "address": "2301 N 45th St, Seattle",
      "maps_url": "https://maps.google.com/?cid=11303654949117081270&g_mp=Cilnb29nbGUubWFwcy5wbGFjZXMudjEuUGxhY2VzLlNlYXJjaE5lYXJieRACGAQgAA"
    },
    {
      "name": "Brimmer & Heeltap",
      "place_id": "ChIJw3NuNbUVkFQRakTXJ8_lT5E",
      "type": "Bistro",
      "rating": 4.6,
      "user_ratings_total": 594,
      "location": {
        "latitude": 47.668538899999994,
        "longitude": -122.36308609999999
      },
      "address": "425 NW Market St, Seattle",
      "maps_url": "https://maps.google.com/?cid=10470840336549102698&g_mp=Cilnb29nbGUubWFwcy5wbGFjZXMudjEuUGxhY2VzLlNlYXJjaE5lYXJieRACGAQgAA"
    },
    {
      "name": "Sisi Kay Thai Eatery and Bar",
      "place_id": "ChIJ0bsMx3UVkFQRu57J_ewighM",
      "type": "Thai Restaurant",
      "rating": 4.6,
      "user_ratings_total": 575,
      "location": {
        "latitude": 47.6615615,
        "longitude": -122.3385771
      },
      "address": "1612 N 45th St, Seattle",
      "maps_url": "https://maps.google.com/?cid=1405724434958491323&g_mp=Cilnb29nbGUubWFwcy5wbGFjZXMudjEuUGxhY2VzLlNlYXJjaE5lYXJieRACGAQgAA"
    },
    {
      "name": "Irwin's Neighborhood Bakery and Cafe",
      "place_id": "ChIJHbJe-vgUkFQRryD8W-0S7xA",
      "type": "Cafe",
      "rating": 4.6,
      "user_ratings_total": 568,
      "location": {
        "latitude": 47.655494399999995,
        "longitude": -122.33283060000001
      },
      "address": "2123 N 40th St, Seattle",
      "maps_url": "https://maps.google.com/?cid=1220214834700492975&g_mp=Cilnb29nbGUubWFwcy5wbGFjZXMudjEuUGxhY2VzLlNlYXJjaE5lYXJieRACGAQgAA"
    },
    {
      "name": "Niko's Gyros Magnolia",
      "place_id": "ChIJnypIWIAVkFQRq4AKf-jfn8g",
      "type": "Greek Restaurant",
      "rating": 4.6,
      "user_ratings_total": 542,
      "location": {
        "latitude": 47.6392166,
        "longitude": -122.39860079999998
      },
      "address": "2231 32nd Ave W, Seattle",
      "maps_url": "https://maps.google.com/?cid=14456519518539382955&g_mp=Cilnb29nbGUubWFwcy5wbGFjZXMudjEuUGxhY2VzLlNlYXJjaE5lYXJieRACGAQgAA"
    },
    {
      "name": "Olaf's",
      "place_id": "ChIJmYd0a9AVkFQRDHuQkcL6FD0",
      "type": "Bar & Grill",
      "rating": 4.6,
      "user_ratings_total": 526,
      "location": {
        "latitude": 47.6746884,
        "longitude": -122.387883
      },
      "address": "6301 24th Ave NW, Seattle",
      "maps_url": "https://maps.google.com/?cid=4401418449420581644&g_mp=Cilnb29nbGUubWFwcy5wbGFjZXMudjEuUGxhY2VzLlNlYXJjaE5lYXJieRACGAQgAA"
    },
    {
      "name": "Kimchi House",
      "place_id": "ChIJjaCEbMUVkFQRpmMCo4PI_gg",
      "type": "Korean Restaurant",
      "rating": 4.6,
      "user_ratings_total": 525,
      "location": {
        "latitude": 47.6713455,
        "longitude": -122.3878412
      },
      "address": "5809 24th Ave NW, Seattle",
      "maps_url": "https://maps.google.com/?cid=648175864089043878&g_mp=Cilnb29nbGUubWFwcy5wbGFjZXMudjEuUGxhY2VzLlNlYXJjaE5lYXJieRACGAQgAA"
    },
    {
      "name": "The Ballard Cut",
      "place_id": "ChIJ68-ZzHsVkFQRsP7l4Y34PYI",
      "type": "American Restaurant",
      "rating": 4.6,
      "user_ratings_total": 523,
      "location": {
        "latitude": 47.6685161,
        "longitude": -122.38586579999999
      },
      "address": "2221 NW Market St, Seattle",
      "maps_url": "https://maps.google.com/?cid=9384930486774005424&g_mp=Cilnb29nbGUubWFwcy5wbGFjZXMudjEuUGxhY2VzLlNlYXJjaE5lYXJieRACGAQgAA"
    },
    {
      "name": "Petit Pierre Bakery",
      "place_id": "ChIJD1MIWIAVkFQRxAk9T8FL7Kg",
      "type": "Bakery",
      "rating": 4.6,
      "user_ratings_total": 518,
      "location": {
        "latitude": 47.639696900000004,
        "longitude": -122.39861030000002
      },
      "address": "3204 W McGraw St, Seattle",
      "maps_url": "https://maps.google.com/?cid=12172187186505779652&g_mp=Cilnb29nbGUubWFwcy5wbGFjZXMudjEuUGxhY2VzLlNlYXJjaE5lYXJieRACGAQgAA"
    },
    {
      "name": "Caravan Halal Central Asian Fusion",
      "place_id": "ChIJN7FyekMVkFQRwcPypNgTslg",
      "type": "Restaurant",
      "rating": 4.6,
      "user_ratings_total": 510,
      "location": {
        "latitude": 47.6612181,
        "longitude": -122.3238137
      },
      "address": "405 NE 45th St, Seattle",
      "maps_url": "https://maps.google.com/?cid=6391192642393392065&g_mp=Cilnb29nbGUubWFwcy5wbGFjZXMudjEuUGxhY2VzLlNlYXJjaE5lYXJieRACGAQgAA"
    },
    {
      "name": "Sen Noodle Bar",
      "place_id": "ChIJ60uyLMQVkFQR2eAhTvAuQeg",
      "type": "Noodle Shop",
      "rating": 4.6,
      "user_ratings_total": 488,
      "location": {
        "latitude": 47.668513399999995,
        "longitude": -122.38659859999999
      },
      "address": "2307 NW Market St, Seattle",
      "maps_url": "https://maps.google.com/?cid=16735709299923345625&g_mp=Cilnb29nbGUubWFwcy5wbGFjZXMudjEuUGxhY2VzLlNlYXJjaE5lYXJieRACGAQgAA"
    },
    {
      "name": "Secret Congee",
      "place_id": "ChIJj83BoEYVkFQRTNN2zLQ3rFo",
      "type": "Restaurant",
      "rating": 4.6,
      "user_ratings_total": 487,
      "location": {
        "latitude": 47.674356700000004,
        "longitude": -122.4066505
      },
      "address": "6301 Seaview Ave NW, Seattle",
      "maps_url": "https://maps.google.com/?cid=6533658409071727436&g_mp=Cilnb29nbGUubWFwcy5wbGFjZXMudjEuUGxhY2VzLlNlYXJjaE5lYXJieRACGAQgAA"
    },
    {
      "name": "Trailbend Taproom",
      "place_id": "ChIJg_3KULYVkFQRXy88V-aHM3M",
      "type": "Restaurant",
      "rating": 4.6,
      "user_ratings_total": 486,
      "location": {
        "latitude": 47.6652706,
        "longitude": -122.3716578
      },
      "address": "1118 NW 50th St, Seattle",
      "maps_url": "https://maps.google.com/?cid=8301127961549746015&g_mp=Cilnb29nbGUubWFwcy5wbGFjZXMudjEuUGxhY2VzLlNlYXJjaE5lYXJieRACGAQgAA"
    },
    {
      "name": "Gasworks Brewing",
      "place_id": "ChIJgzo_qegVkFQRhKDbXGVCDzY",
      "type": "Brewpub",
      "rating": 4.6,
      "user_ratings_total": 474,
      "location": {
        "latitude": 47.6515947,
        "longitude": -122.3293251
      },
      "address": "2441 N Northlake Way, Seattle",
      "maps_url": "https://maps.google.com/?cid=3895405205815795844&g_mp=Cilnb29nbGUubWFwcy5wbGFjZXMudjEuUGxhY2VzLlNlYXJjaE5lYXJieRACGAQgAA"
    },
    {
      "name": "Prost!",
      "place_id": "ChIJV6KuJDsUkFQRiTG1ymfeZss",
      "type": "German Restaurant",
      "rating": 4.6,
      "user_ratings_total": 470,
      "location": {
        "latitude": 47.6822119,
        "longitude": -122.3555341
      },
      "address": "7311 Greenwood Ave N, Seattle",
      "maps_url": "https://maps.google.com/?cid=14656646574687728009&g_mp=Cilnb29nbGUubWFwcy5wbGFjZXMudjEuUGxhY2VzLlNlYXJjaE5lYXJieRACGAQgAA"
    },
    {
      "name": "Olympic Pizza and Pasta",
      "place_id": "ChIJx3O8sG8UkFQRC-K6tJPnqpo",
      "type": "Pizza Restaurant",
      "rating": 4.6,
      "user_ratings_total": 466,
      "location": {
        "latitude": 47.675437900000006,
        "longitude": -122.31750969999999
      },
      "address": "6413 Roosevelt Way NE, Seattle",
      "maps_url": "https://maps.google.com/?cid=11144974849460068875&g_mp=Cilnb29nbGUubWFwcy5wbGFjZXMudjEuUGxhY2VzLlNlYXJjaE5lYXJieRACGAQgAA"
    },
    {
      "name": "Die Bierstube",
      "place_id": "ChIJj3a0hWUUkFQRV2891WOLYCE",
      "type": "German Restaurant",
      "rating": 4.6,
      "user_ratings_total": 464,
      "location": {
        "latitude": 47.673032899999995,
        "longitude": -122.31725229999999
      },
      "address": "6106 Roosevelt Way NE, Seattle",
      "maps_url": "https://maps.google.com/?cid=2405075461911441239&g_mp=Cilnb29nbGUubWFwcy5wbGFjZXMudjEuUGxhY2VzLlNlYXJjaE5lYXJieRACGAQgAA"
    },
    {
      "name": "Americano",
      "place_id": "ChIJy89SSZwVkFQRHjq3SE5ny0o",
      "type": "Hamburger Restaurant",
      "rating": 4.6,
      "user_ratings_total": 448,
      "location": {
        "latitude": 47.645223699999995,
        "longitude": -122.38252270000001
      },
      "address": "2818 Thorndyke Ave W, Seattle",
      "maps_url": "https://maps.google.com/?cid=5389514965004007966&g_mp=Cilnb29nbGUubWFwcy5wbGFjZXMudjEuUGxhY2VzLlNlYXJjaE5lYXJieRACGAQgAA"
    },
    {
      "name": "Leny's Place",
      "place_id": "ChIJqXCHx58QkFQRjtXYGVvp-wU",
      "type": "Bar & Grill",
      "rating": 4.6,
      "user_ratings_total": 448,
      "location": {
        "latitude": 47.668786999999995,
        "longitude": -122.33211200000001
      },
      "address": "2219 N 56th St, Seattle",
      "maps_url": "https://maps.google.com/?cid=431194766828950926&g_mp=Cilnb29nbGUubWFwcy5wbGFjZXMudjEuUGxhY2VzLlNlYXJjaE5lYXJieRACGAQgAA"
    },
    {
      "name": "Ada's Restaurant & Bar",
      "place_id": "ChIJhfEr0EkUkFQRCoMcBGnFUks",
      "type": "Restaurant",
      "rating": 4.6,
      "user_ratings_total": 438,
      "location": {
        "latitude": 47.6721438,
        "longitude": -122.3541651
      },
      "address": "5910 Phinney Ave N, Seattle",
      "maps_url": "https://maps.google.com/?cid=5427617555766084362&g_mp=Cilnb29nbGUubWFwcy5wbGFjZXMudjEuUGxhY2VzLlNlYXJjaE5lYXJieRACGAQgAA"
    },
    {
      "name": "Cornuto Pizzeria",
      "place_id": "ChIJjXPLOTsUkFQRePof7WFiGuc",
      "type": "Pizza Restaurant",
      "rating": 4.6,
      "user_ratings_total": 424,
      "location": {
        "latitude": 47.6827554,
        "longitude": -122.35508229999998
      },
      "address": "7404 Greenwood Ave N, Seattle",
      "maps_url": "https://maps.google.com/?cid=16652730744885475960&g_mp=Cilnb29nbGUubWFwcy5wbGFjZXMudjEuUGxhY2VzLlNlYXJjaE5lYXJieRACGAQgAA"
    },
    {
      "name": "Copine",
      "place_id": "ChIJu-q9V9AVkFQRBXOOMahzKeo",
      "type": "American Restaurant",
      "rating": 4.6,
      "user_ratings_total": 410,
      "location": {
        "latitude": 47.6756873,
        "longitude": -122.3872603
      },
      "address": "6460 24th Ave NW, Seattle",
      "maps_url": "https://maps.google.com/?cid=16873144645143393029&g_mp=Cilnb29nbGUubWFwcy5wbGFjZXMudjEuUGxhY2VzLlNlYXJjaE5lYXJieRACGAQgAA"
    },
    {
      "name": "Kayava. Fremont",
      "place_id": "ChIJh4YxCQAVkFQRBvG4W9UhUzQ",
      "type": "Ramen Restaurant",
      "rating": 4.6,
      "user_ratings_total": 404,
      "location": {
        "latitude": 47.6496664,
        "longitude": -122.34929349999999
      },
      "address": "The Canal Building, 704 N 34th St, Seattle",
      "maps_url": "https://maps.google.com/?cid=3770394513289834758&g_mp=Cilnb29nbGUubWFwcy5wbGFjZXMudjEuUGxhY2VzLlNlYXJjaE5lYXJieRACGAQgAA"
    },
    {
      "name": "Royal Palm Thai Restaurant",
      "place_id": "ChIJ93SKs28UkFQRcmlMprPNrEY",
      "type": "Thai Restaurant",
      "rating": 4.6,
      "user_ratings_total": 404,
      "location": {
        "latitude": 47.6756406,
        "longitude": -122.3175064
      },
      "address": "6417 Roosevelt Way NE # 201, Seattle",
      "maps_url": "https://maps.google.com/?cid=5092671450122054002&g_mp=Cilnb29nbGUubWFwcy5wbGFjZXMudjEuUGxhY2VzLlNlYXJjaE5lYXJieRACGAQgAA"
    },
    {
      "name": "Mainstay Provisions",
      "place_id": "ChIJp6SNV0QVkFQRhWKoXHFQ9Ps",
      "type": "Cafe",
      "rating": 4.6,
      "user_ratings_total": 392,
      "location": {
        "latitude": 47.676144699999995,
        "longitude": -122.36418119999999
      },
      "address": "612 NW 65th St, Seattle",
      "maps_url": "https://maps.google.com/?cid=18155224445653377669&g_mp=Cilnb29nbGUubWFwcy5wbGFjZXMudjEuUGxhY2VzLlNlYXJjaE5lYXJieRACGAQgAA"
    },
    {
      "name": "A Muddy Cup Cafe' & Roastery",
      "place_id": "ChIJt6MlNV8UkFQRH3VSw0VlxdM",
      "type": "Coffee Shop",
      "rating": 4.6,
      "user_ratings_total": 385,
      "location": {
        "latitude": 47.661511000000004,
        "longitude": -122.32537479999999
      },
      "address": "266 NE 45th St, Seattle",
      "maps_url": "https://maps.google.com/?cid=15259714262718903583&g_mp=Cilnb29nbGUubWFwcy5wbGFjZXMudjEuUGxhY2VzLlNlYXJjaE5lYXJieRACGAQgAA"
    },
    {
      "name": "Green Tree Restaurant",
      "place_id": "ChIJK0LLRHMVkFQRCRfKESLSqYA",
      "type": "Vietnamese Restaurant",
      "rating": 4.6,
      "user_ratings_total": 382,
      "location": {
        "latitude": 47.692141199999995,
        "longitude": -122.3549844
      },
      "address": "8576 Greenwood Ave N, Seattle",
      "maps_url": "https://maps.google.com/?cid=9271172351688054537&g_mp=Cilnb29nbGUubWFwcy5wbGFjZXMudjEuUGxhY2VzLlNlYXJjaE5lYXJieRACGAQgAA"
    },
    {
      "name": "Anita's Mexican Food",
      "place_id": "ChIJMfDre0oRkFQRTPzAGA0oCHw",
      "type": "Mexican Restaurant",
      "rating": 4.6,
      "user_ratings_total": 382,
      "location": {
        "latitude": 47.7030217,
        "longitude": -122.3450465
      },
      "address": "10203 Aurora Ave N, Seattle",
      "maps_url": "https://maps.google.com/?cid=8937437497231735884&g_mp=Cilnb29nbGUubWFwcy5wbGFjZXMudjEuUGxhY2VzLlNlYXJjaE5lYXJieRACGAQgAA"
    },
    {
      "name": "Salvatore Ristorante Italiano",
      "place_id": "ChIJNyxwhGUUkFQR4OgOQf_37lw",
      "type": "Italian Restaurant",
      "rating": 4.6,
      "user_ratings_total": 382,
      "location": {
        "latitude": 47.6729681,
        "longitude": -122.31721850000001
      },
      "address": "6100 Roosevelt Way NE, Seattle",
      "maps_url": "https://maps.google.com/?cid=6696562371626723552&g_mp=Cilnb29nbGUubWFwcy5wbGFjZXMudjEuUGxhY2VzLlNlYXJjaE5lYXJieRACGAQgAA"
    },
    {
      "name": "Phở Vietnam",
      "place_id": "ChIJVzriwCwUkFQRn05txiPw18c",
      "type": "Vietnamese Restaurant",
      "rating": 4.6,
      "user_ratings_total": 378,
      "location": {
        "latitude": 47.6807613,
        "longitude": -122.3765533
      },
      "address": "7040 15th Ave NW, Seattle",
      "maps_url": "https://maps.google.com/?cid=14400242369984024223&g_mp=Cilnb29nbGUubWFwcy5wbGFjZXMudjEuUGxhY2VzLlNlYXJjaE5lYXJieRACGAQgAA"
    },
    {
      "name": "Oliver's Twist",
      "place_id": "ChIJja4jQDoUkFQRmoPUU2uOZ5U",
      "type": "Cocktail Bar",
      "rating": 4.6,
      "user_ratings_total": 352,
      "location": {
        "latitude": 47.6794583,
        "longitude": -122.35500359999999
      },
      "address": "6822 Greenwood Ave N, Seattle",
      "maps_url": "https://maps.google.com/?cid=10765730025871541146&g_mp=Cilnb29nbGUubWFwcy5wbGFjZXMudjEuUGxhY2VzLlNlYXJjaE5lYXJieRACGAQgAA"
    },
    {
      "name": "Rooftop Brewing Company",
      "place_id": "ChIJ88tzCQgVkFQRgIpSPGSf9KI",
      "type": "Brewery",
      "rating": 4.6,
      "user_ratings_total": 351,
      "location": {
        "latitude": 47.6627747,
        "longitude": -122.3716953
      },
      "address": "1111 NW Ballard Way, Seattle",
      "maps_url": "https://maps.google.com/?cid=11742185381319314048&g_mp=Cilnb29nbGUubWFwcy5wbGFjZXMudjEuUGxhY2VzLlNlYXJjaE5lYXJieRACGAQgAA"
    },
    {
      "name": "NOLITA Italian Food and Wine Restaurant",
      "place_id": "ChIJVSZBtHwVkFQRdsgGDD2lO9w",
      "type": "Italian Restaurant",
      "rating": 4.6,
      "user_ratings_total": 340,
      "location": {
        "latitude": 47.672107,
        "longitude": -122.37651140000001
      },
      "address": "5909 15th Ave NW, Seattle",
      "maps_url": "https://maps.google.com/?cid=15869459393583433846&g_mp=Cilnb29nbGUubWFwcy5wbGFjZXMudjEuUGxhY2VzLlNlYXJjaE5lYXJieRACGAQgAA"
    },
    {
      "name": "El Taco Loco",
      "place_id": "ChIJ_ZxctE0VkFQRdqPJ9iHbbJM",
      "type": "Taco Restaurant",
      "rating": 4.6,
      "user_ratings_total": 320,
      "location": {
        "latitude": 47.6688814,
        "longitude": -122.39499560000002
      },
      "address": "2840 NW Market St, Seattle",
      "maps_url": "https://maps.google.com/?cid=10623106559980970870&g_mp=Cilnb29nbGUubWFwcy5wbGFjZXMudjEuUGxhY2VzLlNlYXJjaE5lYXJieRACGAQgAA"
    },
    {
      "name": "The Chicken Supply",
      "place_id": "ChIJiZjQRGIVkFQRW9aqw8vwuqs",
      "type": "Chicken Restaurant",
      "rating": 4.6,
      "user_ratings_total": 316,
      "location": {
        "latitude": 47.6828643,
        "longitude": -122.355002
      },
      "address": "7410 Greenwood Ave N, Seattle",
      "maps_url": "https://maps.google.com/?cid=12374467684105639515&g_mp=Cilnb29nbGUubWFwcy5wbGFjZXMudjEuUGxhY2VzLlNlYXJjaE5lYXJieRACGAQgAA"
    },
    {
      "name": "Mura Asian Eatery",
      "place_id": "ChIJ62sU5YAVkFQR5nwWHnnN9eU",
      "type": "Asian Fusion Restaurant",
      "rating": 4.6,
      "user_ratings_total": 292,
      "location": {
        "latitude": 47.640195000000006,
        "longitude": -122.39915099999999
      },
      "address": "3216 W Wheeler St, Seattle",
      "maps_url": "https://maps.google.com/?cid=16570376324059135206&g_mp=Cilnb29nbGUubWFwcy5wbGFjZXMudjEuUGxhY2VzLlNlYXJjaE5lYXJieRACGAQgAA"
    },
    {
      "name": "Pacha Collective",
      "place_id": "ChIJHZgLE_8VkFQRQHv7ZHqJzkY",
      "type": "Restaurant",
      "rating": 4.6,
      "user_ratings_total": 263,
      "location": {
        "latitude": 47.680354799999996,
        "longitude": -122.324821
      },